City_ID,City,Lat,Lng,Max Temp,Humidity,Cloudiness,Wind Speed,Country,Date
0,tvoroyri,61.5556,-6.8111,11.67,97,94,6.68,FO,1691712983
1,edinburgh of the seven seas,-37.0676,-12.3116,12.09,73,64,13.35,SH,1691712984
2,bilibino,68.0546,166.4372,12.76,71,99,2.09,RU,1691712984
3,margaret river,-33.95,115.0667,12.13,77,82,2.41,AU,1691712984
4,tiksi,71.6872,128.8694,18.98,41,6,5.18,RU,1691712984
5,port-aux-francais,-49.35,70.2167,3.84,84,88,16.12,TF,1691712984
6,uturoa,-16.7333,-151.4333,25.05,69,86,8.22,PF,1691712984
7,adamstown,-25.066,-130.1015,17.94,62,14,10.76,PN,1691712985
8,hasaki,35.7333,140.8333,31.27,79,8,5.82,JP,1691712985
9,west island,-12.1568,96.8225,24.99,88,100,5.66,CC,1691712985
10,horta,38.5333,-28.6333,21.12,86,63,3.58,PT,1691712985
11,papatowai,-46.5619,169.4708,7.13,73,100,1.39,NZ,1691712985
12,saipan,15.1355,145.701,26.39,100,100,4.63,MP,1691712728
13,puerto natales,-51.7236,-72.4875,-0.31,93,55,2.08,CL,1691712985
14,kiunga,-6.1219,141.2906,24.29,78,95,2.35,PG,1691712986
15,port lincoln,-34.7333,135.8667,11.61,70,48,2.36,AU,1691712986
16,fortuna,40.5982,-124.1573,19.81,77,20,5.66,US,1691712928
17,maracacume,-2.0428,-45.9592,24.33,86,86,1.35,BR,1691712986
18,peace river,56.2501,-117.286,17.17,88,75,4.12,CA,1691712986
19,jijiga,9.35,42.8,18.0,79,62,5.62,ET,1691712987
20,waitangi,-43.9535,-176.5597,12.68,92,86,3.58,NZ,1691712987
21,carnarvon,-24.8667,113.6333,19.19,76,6,1.66,AU,1691712987
22,blackmans bay,-43.0167,147.3167,11.5,74,99,2.95,AU,1691712987
23,aasiaat,68.7098,-52.8699,3.15,87,100,1.01,GL,1691712987
24,hawaiian paradise park,19.5933,-154.9731,27.8,78,75,4.63,US,1691712987
25,kasempa,-13.4584,25.8338,13.11,48,0,2.46,ZM,1691712988
26,motygino,58.1831,94.7592,15.48,80,47,0.93,RU,1691712988
27,recani,31.2846,-4.2688,33.43,12,55,2.1,MA,1691712988
28,champerico,14.3,-91.9167,32.3,77,87,3.69,GT,1691712988
29,ushuaia,-54.8,-68.3,0.81,100,75,3.09,AR,1691712988
30,petropavlovsk-kamchatsky,53.0452,158.6483,17.33,55,20,2.0,RU,1691712988
31,tolanaro,-25.0319,46.9987,17.42,68,86,3.82,MG,1691712989
32,fort bragg,35.139,-79.006,29.85,69,40,2.57,US,1691712989
33,grytviken,-54.2811,-36.5092,-0.38,98,97,5.08,GS,1691712989
34,cidreira,-30.1811,-50.2056,17.72,96,51,6.56,BR,1691712989
35,stettler,52.3168,-112.7186,21.86,43,82,5.66,CA,1691712989
36,ilulissat,69.2167,-51.1,7.01,81,75,2.06,GL,1691712989
37,chernomorskoye,45.5039,32.6997,23.0,77,100,5.06,UA,1691712990
38,avarua,-21.2078,-159.775,24.03,88,100,6.17,CK,1691712990
39,whitehorse,60.7161,-135.0538,15.45,82,75,2.06,CA,1691712990
40,hermanus,-34.4187,19.2345,15.43,59,0,1.06,ZA,1691712990
41,tateyama,34.9833,139.8667,27.97,78,1,4.92,JP,1691712990
42,albany,42.6001,-73.9662,21.05,88,94,1.25,US,1691712907
43,vorgashor,67.5833,63.95,4.2,97,80,4.03,RU,1691712991
44,lihue,21.9789,-159.3672,30.77,59,0,7.2,US,1691712991
45,ribeira grande,38.5167,-28.7,21.54,86,59,3.58,PT,1691712991
46,st. john's,47.5649,-52.7093,18.49,92,82,2.68,CA,1691712401
47,nemuro,43.3236,145.575,20.22,95,100,6.54,JP,1691712992
48,shchigry,51.8755,36.9043,18.9,91,100,3.25,RU,1691712992
49,templeton,35.5497,-120.706,23.07,81,100,5.14,US,1691712992
50,tofol,5.3248,163.0078,30.88,70,75,1.54,FM,1691712992
51,tazacorte,28.629,-17.9293,24.54,78,0,7.72,ES,1691712992
52,east london,-33.0153,27.9116,18.2,62,0,5.15,ZA,1691712993
53,tyukalinsk,55.8732,72.1967,12.65,75,99,5.03,RU,1691712886
54,stanley,54.868,-1.6985,19.01,84,0,3.6,GB,1691712993
55,nsanje,-16.92,35.262,16.31,91,7,1.25,MW,1691712993
56,yulinshi,38.2906,109.7494,23.93,78,98,1.31,CN,1691712993
57,mount gambier,-37.8333,140.7667,11.03,88,100,3.39,AU,1691712993
58,flying fish cove,-10.4217,105.6791,23.82,88,75,4.63,CX,1691712994
59,isafjordur,66.0755,-23.124,6.62,87,85,4.43,IS,1691712994
60,guixi,28.2886,117.2133,28.03,82,100,2.4,CN,1691712994
61,vilyuchinsk,52.9306,158.4028,17.92,66,71,1.79,RU,1691712741
62,jamestown,42.097,-79.2353,19.8,81,100,5.14,US,1691712994
63,tamanrasset,22.785,5.5228,24.95,11,0,2.06,DZ,1691712994
64,bredasdorp,-34.5322,20.0403,12.52,72,0,0.88,ZA,1691712995
65,paracatu,-17.2222,-46.8747,21.09,48,0,1.15,BR,1691712995
66,wailua homesteads,22.0669,-159.378,30.44,68,0,7.2,US,1691712995
67,longyearbyen,78.2186,15.6401,8.91,87,100,0.51,SJ,1691712995
68,tatarsk,55.219,75.9828,11.24,85,45,3.01,RU,1691712995
69,magnitogorsk,53.4186,59.0472,14.85,89,77,3.16,RU,1691712995
70,shambu,9.5667,37.1,9.86,89,93,0.53,ET,1691712996
71,qingnian,36.8456,115.7117,26.92,74,27,2.79,CN,1691712996
72,invercargill,-46.4,168.35,7.23,79,100,2.24,NZ,1691712996
73,chinde,26.8418,88.0763,19.04,97,100,0.47,NP,1691712996
74,codrington,-38.2667,141.9667,11.57,79,100,5.07,AU,1691712996
75,college,64.8569,-147.8028,22.34,75,75,1.54,US,1691712996
76,priladozhskiy,59.85,31.4833,14.66,74,80,2.35,RU,1691712997
77,mirny,62.5353,113.9611,17.91,72,99,3.13,RU,1691712997
78,iqaluit,63.7506,-68.5145,5.85,93,75,4.47,CA,1691712997
79,isiro,2.7739,27.616,19.17,99,100,0.91,CD,1691712997
80,ma'rib,15.4591,45.3253,29.19,11,100,2.7,YE,1691712997
81,ambovombe,-25.1667,46.0833,16.86,61,29,4.94,MG,1691712997
82,badger,64.8,-147.5333,22.3,73,75,1.54,US,1691712997
83,pionerskiy,54.9508,20.2275,10.91,77,95,3.37,RU,1691712998
84,acarau,-2.8856,-40.12,25.55,84,22,6.77,BR,1691712998
85,woodlake,37.4211,-77.6793,26.1,83,0,1.54,US,1691712998
86,hamilton,39.1834,-84.5333,26.69,69,20,3.09,US,1691712705
87,aldinga beach,-35.2793,138.4604,13.75,76,19,3.03,AU,1691712998
88,anadyr,64.75,177.4833,10.28,76,100,2.68,RU,1691712998
89,atafu village,-8.5421,-172.5159,28.15,74,39,4.74,TK,1691712998
90,doka,13.5167,35.7667,22.89,91,100,3.08,SD,1691712998
91,gereida,11.2811,25.1414,25.29,73,40,3.35,SD,1691712999
92,qaqortoq,60.7167,-46.0333,6.66,79,93,0.63,GL,1691712999
93,dampit,-8.2116,112.7493,20.99,71,30,1.46,ID,1691712999
94,iskateley,67.6803,53.1512,10.31,82,13,1.31,RU,1691712999
95,portel,-1.9356,-50.8211,25.17,80,48,1.17,BR,1691712999
96,nizhnekamsk,55.6366,51.8245,17.44,77,0,4.0,RU,1691712999
97,yellowknife,62.456,-114.3525,16.79,63,99,3.75,CA,1691712782
98,urangan,-25.3,152.9,18.09,69,0,3.89,AU,1691712999
99,sitia,35.2,26.0986,26.1,66,0,5.74,GR,1691713000
100,mata-utu,-13.2816,-176.1745,28.08,74,85,5.39,WF,1691713000
101,kikwit,-5.041,18.8162,27.48,51,100,0.61,CD,1691713000
102,howrah,22.5892,88.3103,27.0,83,75,2.06,IN,1691713000
103,i-n-salah,27.1935,2.4607,34.62,14,0,4.66,DZ,1691713000
104,kone,-21.0595,164.8658,22.4,40,0,3.26,NC,1691713000
105,namsos,64.4662,11.4957,11.95,87,100,0.0,NO,1691713001
106,vadso,70.0744,29.7487,19.09,77,75,7.72,NO,1691713001
107,buala,-8.145,159.5921,25.94,86,100,6.19,SB,1691713001
108,kuanda,56.3161,116.0806,16.84,95,100,1.57,RU,1691713001
109,pacific grove,36.6177,-121.9166,24.02,83,20,4.63,US,1691713001
110,kapoeta,4.7717,33.5903,23.75,66,31,1.14,SS,1691713001
111,kavieng,-2.5744,150.7967,27.17,78,75,7.27,PG,1691713001
112,tazovsky,67.4667,78.7,4.57,64,0,9.22,RU,1691713002
113,kilindoni,-7.9139,39.6668,24.09,76,33,6.24,TZ,1691713002
114,weno,7.4515,151.8468,27.93,74,72,2.2,FM,1691713002
115,muroto-misakicho,33.2833,134.15,27.61,83,3,3.94,JP,1691712890
116,bethel,41.3712,-73.414,21.95,86,100,1.51,US,1691712945
117,porangatu,-13.4408,-49.1486,26.04,37,2,1.71,BR,1691712790
118,fale old settlement,-9.3852,-171.2468,27.79,78,79,5.65,TK,1691713003
119,la passe,45.5549,-0.8967,19.43,92,48,3.13,FR,1691713003
120,katsuura,35.1333,140.3,28.15,77,2,5.51,JP,1691713003
121,olonkinbyen,70.9221,-8.7187,6.73,99,100,4.37,SJ,1691713003
122,chibougamau,49.9168,-74.3659,15.59,85,100,1.5,CA,1691712716
123,extrema,-22.8547,-46.3183,19.65,62,43,2.18,BR,1691713003
124,ixtapa,20.7,-105.2,31.57,74,75,4.12,MX,1691713003
125,nouadhibou,20.931,-17.0347,22.99,83,40,4.63,MR,1691713003
126,inari,68.906,27.0288,13.11,92,31,3.4,FI,1691713004
127,kili,5.6439,169.1211,28.43,74,74,5.23,MH,1691713004
128,zaozersk,69.4005,32.4476,16.06,87,0,5.67,RU,1691713004
129,newman,37.3138,-121.0208,34.02,40,35,2.24,US,1691713004
130,khandyga,62.6667,135.6,22.9,40,11,1.74,RU,1691712739
131,concepcion,-36.827,-73.0498,8.87,86,61,2.08,CL,1691712745
132,alice springs,-23.7,133.8833,18.75,27,1,0.0,AU,1691712928
133,mongo,12.1844,18.693,23.99,86,21,1.51,TD,1691713005
134,yigo village,13.5361,144.8886,27.16,84,20,7.2,GU,1691713005
135,colby,39.3958,-101.0524,34.9,32,0,3.6,US,1691713005
136,kargat,55.1956,80.2811,10.18,92,100,3.82,RU,1691713005
137,es castell,39.8795,4.2854,24.38,94,0,1.54,ES,1691713005
138,houghton,47.1219,-88.569,19.29,65,20,3.09,US,1691713005
139,vredefort,-27.0081,27.3646,9.38,52,5,3.1,ZA,1691713005
140,lazaro cardenas,17.9583,-102.2,30.01,71,52,4.61,MX,1691713006
141,kallar kahar,32.7833,72.7,28.46,69,74,2.4,PK,1691713006
142,floro,61.5996,5.0328,9.98,87,100,3.6,NO,1691713006
143,saint-francois,46.4154,3.9054,17.69,88,0,1.03,FR,1691713006
144,enshi,30.3,109.4833,25.38,91,50,0.36,CN,1691713007
145,antofagasta,-23.65,-70.4,16.83,76,31,3.05,CL,1691712745
146,tahe,52.3333,124.7333,21.05,66,69,2.02,CN,1691713007
147,colonia,50.9333,6.95,17.76,82,0,1.54,DE,1691712767
148,minas de marcona,-15.2119,-75.1103,12.7,88,46,7.08,PE,1691713007
149,vyaz'ma,55.2104,34.2951,13.71,65,91,2.98,RU,1691713008
150,argo,37.6333,22.7333,24.32,73,47,1.56,GR,1691713008
151,thompson,55.7435,-97.8558,19.09,45,100,1.54,CA,1691713008
152,awjilah,29.1081,21.2869,25.88,48,0,7.36,LY,1691713008
153,mermoz boabab,14.7065,-17.4758,27.31,75,92,4.97,SN,1691713008
154,brazzaville,-4.2658,15.2832,25.73,60,96,2.46,CG,1691713008
155,iwaki,37.05,140.8833,30.98,81,37,1.34,JP,1691713009
156,enewetak,11.3474,162.3373,28.57,76,38,5.46,MH,1691713009
157,mhamid,29.82,-5.72,34.73,11,8,2.28,MA,1691713009
158,puerto deseado,-47.7503,-65.8938,7.7,76,33,8.32,AR,1691713009
159,kaoma,-14.7833,24.8,12.06,54,0,2.58,ZM,1691713009
160,saldanha,-33.0117,17.9442,16.33,59,0,2.47,ZA,1691713009
161,camiri,-20.05,-63.5167,22.27,58,0,0.9,BO,1691713009
162,dunedin,-45.8742,170.5036,7.82,55,86,0.8,NZ,1691713010
163,kimbe,-5.5502,150.1429,28.31,58,35,5.41,PG,1691713010
164,georgetown,5.4112,100.3354,27.23,92,20,1.03,MY,1691713010
165,tayshet,55.9342,98.0044,16.51,74,9,1.59,RU,1691713010
166,natal,-5.795,-35.2094,24.5,79,39,5.28,BR,1691712821
167,mukalla,14.5425,49.1242,29.21,69,87,2.79,YE,1691713010
168,tsiombe,-25.3,45.4833,17.08,60,21,4.3,MG,1691713010
169,dalcahue,-42.3628,-73.7022,4.56,87,79,1.82,CL,1691712991
170,ocean city,39.2776,-74.5746,24.45,90,100,1.79,US,1691713011
171,sinabang,2.4803,96.3801,25.96,82,94,0.38,ID,1691713011
172,nar'yan-mar,67.6713,53.087,10.35,82,13,1.33,RU,1691713011
173,keflavik,64.0049,-22.5624,12.95,93,40,3.6,IS,1691713011
174,wuyo,10.3852,11.6968,22.43,87,98,0.91,NG,1691713011
175,inhambane,-23.865,35.3833,17.31,72,2,3.01,MZ,1691713011
176,kununurra,-15.7667,128.7333,23.99,43,74,2.57,AU,1691712720
177,port blair,11.6667,92.75,27.25,83,91,5.42,IN,1691713011
178,pervomayskiy,53.2485,40.2871,18.75,89,99,3.25,RU,1691713012
179,woolgoolga,-30.1106,153.2007,18.93,54,0,2.57,AU,1691713012
180,leo,11.1,-2.1,21.2,98,87,3.13,BF,1691713012
181,swan hill,-35.3378,143.5544,12.07,62,7,2.11,AU,1691713012
182,morehead city,34.7229,-76.726,28.33,85,75,6.17,US,1691713012
183,udachny,66.4167,112.4,16.36,87,91,2.18,RU,1691713012
184,saynshand,44.8824,110.1163,22.04,59,20,2.99,MN,1691713012
185,kingston,17.997,-76.7936,27.34,97,94,0.45,JM,1691713013
186,taounate,34.5,-4.8333,33.84,25,50,0.78,MA,1691713013
187,chancay,-11.5714,-77.2672,18.75,83,44,2.98,PE,1691713013
188,beau vallon,-20.4189,57.6953,20.13,88,40,1.54,MU,1691713013
189,noosa heads,-26.3833,153.15,22.84,56,0,5.05,AU,1691712733
190,parauapebas,-6.0675,-49.9022,25.96,43,2,1.14,BR,1691713013
191,calama,-22.4667,-68.9333,16.27,14,0,4.63,CL,1691712997
192,inirida,3.8653,-67.9239,23.97,96,90,1.64,CO,1691713013
193,dudinka,69.4058,86.1778,8.68,51,78,11.63,RU,1691713014
194,kelkit,40.1298,39.4361,14.3,44,1,1.12,TR,1691713014
195,port mathurin,-19.6833,63.4167,23.03,77,56,9.81,MU,1691713014
196,nova sintra,14.8667,-24.7167,22.72,75,24,5.58,CV,1691713014
197,severo-yeniseyskiy,60.3725,93.0408,12.29,97,100,1.53,RU,1691713014
198,perros-guirec,48.8145,-3.4396,19.8,93,50,0.45,FR,1691713015
199,lagoa,39.05,-27.9833,22.52,64,69,3.16,PT,1691713015
200,tejupilco de hidalgo,18.9,-100.15,23.61,86,77,1.57,MX,1691713015
201,micheweni,-4.9667,39.8333,23.2,84,38,5.17,TZ,1691713015
202,ola,59.5833,151.2833,20.08,67,13,2.13,RU,1691713015
203,galesong,-5.3166,119.3661,26.01,67,24,2.77,ID,1691713015
204,fort st. john,56.2499,-120.8529,16.53,71,80,3.32,CA,1691712834
205,kodinsk,58.6881,99.1844,17.14,71,14,1.12,RU,1691713016
206,hami,42.8,93.45,28.46,21,0,3.55,CN,1691713016
207,port elizabeth,-33.918,25.5701,20.61,37,17,5.4,ZA,1691713016
208,sodankyla,67.4167,26.6,12.12,94,4,2.01,FI,1691713016
209,puerto ayora,-0.7393,-90.3518,24.75,93,62,2.24,EC,1691713016
210,yuzhno-kurilsk,44.0306,145.8556,21.71,90,99,6.2,RU,1691713017
211,dhuusamarreeb,5.535,46.3861,23.12,72,90,8.66,SO,1691713017
212,arkhangel'sk,64.5401,40.5433,16.97,92,11,0.9,RU,1691713017
213,sarupathar,26.1984,93.8094,25.0,96,100,1.35,IN,1691713017
214,puerto cabezas,14.0351,-83.3888,27.65,83,96,3.45,NI,1691713017
215,yomju-up,39.8933,124.5981,22.1,93,100,2.66,KP,1691713017
216,kavaratti,10.5669,72.642,27.61,77,94,7.28,IN,1691713017
217,hadibu,12.65,54.0333,25.45,80,66,6.81,YE,1691713018
218,languyan,5.2618,120.0807,27.47,80,98,1.8,PH,1691713018
219,susuman,62.7833,148.1667,17.37,44,7,0.74,RU,1691713018
220,selfoss,63.9331,-20.9971,13.36,85,64,3.22,IS,1691713018
221,greymouth,-42.4667,171.2,5.38,84,82,1.89,NZ,1691713018
222,samoylovka,51.184,43.7081,23.16,43,100,3.23,RU,1691713018
223,usinsk,65.9939,57.5281,10.67,82,28,3.71,RU,1691713018
224,fort mcmurray,56.7268,-111.381,14.77,94,100,4.63,CA,1691713019
225,waingapu,-9.6567,120.2641,25.56,68,66,4.1,ID,1691713019
226,grand falls-windsor,48.9332,-55.6649,15.28,95,100,1.28,CA,1691713019
227,revelstoke,50.9832,-118.2023,20.01,64,100,6.69,CA,1691713019
228,cabedelo,-6.9811,-34.8339,23.37,82,15,5.37,BR,1691713019
229,high point,35.9557,-80.0053,26.45,86,75,3.6,US,1691712930
230,rikaze,29.25,88.8833,14.87,63,100,0.87,CN,1691713019
231,brisas de zicatela,15.8369,-97.0419,31.29,62,40,4.12,MX,1691713020
232,ko lanta,7.5336,99.0865,27.39,79,66,3.88,TH,1691713020
233,constantia,44.1833,28.65,20.39,59,100,5.93,RO,1691713020
234,shagonar,51.5333,92.8,16.65,64,66,0.89,RU,1691713020
235,le trait,49.4689,0.8163,20.86,79,21,1.74,FR,1691713020
236,touros,-5.1989,-35.4608,24.83,80,49,6.51,BR,1691713020
237,ciudad bolivar,8.1222,-63.5497,30.97,50,64,3.88,VE,1691712840
238,kinablangan,7.6947,126.5503,27.15,79,100,1.45,PH,1691713021
239,utrik,11.2278,169.8474,27.89,75,8,5.41,MH,1691713021
240,kailua-kona,19.6406,-155.9956,28.98,78,75,5.66,US,1691712763
241,chimala,-8.85,34.0167,14.95,72,5,1.84,TZ,1691713021
242,qarauyl,48.9451,79.255,17.49,76,25,3.21,KZ,1691713021
243,mitu,1.1983,-70.1733,22.59,99,77,0.99,CO,1691713022
244,kananga,-5.8958,22.4178,26.29,39,100,0.31,CD,1691713022
245,kibre mengist,5.8833,38.9833,15.0,88,97,0.9,ET,1691712837
246,berezovo,63.9381,65.0419,8.54,81,10,3.04,RU,1691713022
247,wagar,16.1525,36.2032,26.33,74,100,4.62,SD,1691713022
248,miyako,39.6367,141.9525,28.82,70,8,4.52,JP,1691713023
249,gammertingen,48.25,9.2167,13.4,82,4,0.68,DE,1691713023
250,villa yapacani,-17.4,-63.8333,30.16,40,3,3.52,BO,1691713023
251,jean-rabel,19.8533,-73.1917,28.43,78,87,4.06,HT,1691713023
252,gdov,58.7406,27.8122,14.51,89,36,3.07,RU,1691713023
253,sanya,18.2431,109.505,28.52,83,100,0.66,CN,1691712726
254,worland,44.0169,-107.9554,32.16,23,20,3.6,US,1691713024
255,lagos,6.5833,3.75,25.18,89,82,1.97,NG,1691713024
256,bodo,67.28,14.405,16.36,69,0,6.17,NO,1691713024
257,nikolayevsk-on-amure,53.1406,140.73,19.99,62,30,1.52,RU,1691713024
258,margate,51.3813,1.3862,19.27,74,25,1.34,GB,1691712727
259,keetmanshoop,-26.5833,18.1333,15.41,26,49,5.88,NA,1691713025
260,queenstown,-31.8976,26.8753,10.83,50,0,2.82,ZA,1691713025
261,bocas del toro,9.3333,-82.25,25.68,80,54,2.24,PA,1691713025
262,punta arenas,-53.15,-70.9167,2.4,75,100,5.61,CL,1691713025
263,hovd,48.0056,91.6419,19.05,48,0,1.37,MN,1691713025
264,pangody,65.85,74.4859,5.01,82,3,8.34,RU,1691713025
265,lebu,-37.6167,-73.65,9.29,77,57,5.21,CL,1691713026
266,charlestown,-32.95,151.6667,17.5,51,0,0.89,AU,1691713026
267,port alfred,-33.5906,26.891,19.65,48,0,4.5,ZA,1691713026
268,port saint john's,-31.6229,29.5448,16.49,86,6,4.24,ZA,1691713026
269,bulgan,48.8125,103.5347,14.35,82,6,0.45,MN,1691713026
270,barra de santo antonio,-9.4047,-35.5072,22.6,86,5,4.24,BR,1691713026
271,veinticinco de mayo,-35.4323,-60.1727,11.66,96,85,0.89,AR,1691713027
272,caraballeda,10.6112,-66.8522,26.32,93,28,2.8,VE,1691713027
273,anjozorobe,-18.4,47.8667,13.36,91,63,1.78,MG,1691713027
274,howard springs,-12.497,131.047,26.57,47,80,4.81,AU,1691713027
275,ust-nera,64.5667,143.2,22.14,39,15,0.81,RU,1691713027
276,nagqu,31.5,92.0,7.68,86,99,0.48,CN,1691713028
277,kargasok,59.0556,80.8572,12.13,98,100,4.86,RU,1691713028
278,santa cruz,-17.8,-63.1667,26.7,69,0,6.17,BO,1691713028
279,timaru,-44.4,171.25,8.93,55,99,2.68,NZ,1691712949
280,opuwo,-18.0607,13.84,15.97,35,0,1.55,NA,1691713028
281,cockburn town,21.4612,-71.1419,28.88,85,99,8.96,TC,1691712869
282,bel ombre,-4.6167,55.4167,24.91,83,20,1.03,SC,1691713029
283,conception bay south,47.4999,-52.9981,18.36,92,43,3.68,CA,1691713029
284,dhidhdhoo,6.8833,73.1,28.2,75,93,7.26,MV,1691713029
285,road town,18.4167,-64.6167,30.05,79,40,3.09,VG,1691713029
286,ancud,-41.8697,-73.8203,6.49,73,83,5.88,CL,1691713029
287,hotan,37.0997,79.9269,28.22,20,89,3.21,CN,1691713029
288,amahai,-3.3333,128.9167,25.34,82,94,2.39,ID,1691713030
289,slave lake,55.2834,-114.769,15.99,88,100,9.26,CA,1691713030
290,longquan,24.6719,102.1613,19.35,96,86,0.75,CN,1691713030
291,kittila,67.6647,24.8936,10.08,100,100,1.03,FI,1691713030
292,zhangye,38.9342,100.4517,22.14,57,46,3.01,CN,1691713030
293,kaifeng,34.7911,114.3483,27.61,78,45,3.4,CN,1691713031
294,namtsy,62.7161,129.6658,20.6,53,13,3.93,RU,1691713031
295,aweil,8.7682,27.4002,22.83,89,97,1.14,SS,1691713031
296,abra pampa,-22.7205,-65.697,9.06,9,48,2.92,AR,1691713031
297,westport,41.1415,-73.3579,22.16,88,100,2.57,US,1691713031
298,kalajoki,64.25,23.95,14.39,92,84,2.97,FI,1691713032
299,kodiak,57.79,-152.4072,13.73,88,100,3.09,US,1691712770
300,talnakh,69.4865,88.3972,8.45,63,99,7.83,RU,1691713032
301,bonthe,7.5264,-12.505,25.14,83,97,4.85,SL,1691713032
302,rongelap,11.1635,166.8941,28.33,75,54,6.17,MH,1691713032
303,ngaoundere,7.3167,13.5833,17.81,97,99,0.39,CM,1691712855
304,pyhaselka,62.4333,29.9667,13.15,73,55,2.52,FI,1691713032
305,conduaga,8.862,117.4893,28.08,80,98,3.38,PH,1691713033
306,ilfracombe,51.2093,-4.1134,18.69,97,90,4.02,GB,1691713033
307,happy valley-goose bay,53.3168,-60.3315,15.17,72,75,1.03,CA,1691712911
308,kocarli,37.7611,27.7058,21.99,78,0,2.06,TR,1691713033
309,troitsko-pechorsk,62.7084,56.1964,10.49,88,47,0.52,RU,1691713033
310,sao tome,0.3365,6.7273,24.73,83,98,2.79,ST,1691713034
311,vylkove,45.4021,29.586,19.83,56,84,5.2,UA,1691713034
312,kyshtovka,56.555,76.6271,11.73,92,99,3.47,RU,1691713034
313,estancia,-11.2683,-37.4383,20.55,92,16,1.56,BR,1691713034
314,alesund,62.4723,6.1549,13.2,88,100,4.63,NO,1691712867
315,sale,34.0389,-6.8166,29.24,73,40,1.54,MA,1691713034
316,sao joao da barra,-21.6403,-41.0511,22.57,85,9,8.32,BR,1691712752
317,cabo san lucas,22.8909,-109.9124,34.23,73,40,5.14,MX,1691712378
318,dar chioukh,34.8964,3.4854,26.83,25,2,2.57,DZ,1691712974
319,zambezi,-13.5432,23.1047,12.42,43,0,2.42,ZM,1691713035
320,athens,37.9795,23.7162,26.48,60,20,4.12,GR,1691712758
321,vila velha,-20.3297,-40.2925,21.97,83,75,2.06,BR,1691713035
322,kapenguria,1.2511,35.0895,12.87,87,35,1.39,KE,1691713035
323,greenville,35.6127,-77.3663,28.02,79,40,2.57,US,1691712834
324,yelwa,8.8333,9.6333,22.86,94,100,0.81,NG,1691713036
325,nishinoomote,30.7333,131.0,28.31,94,40,1.03,JP,1691712829
326,abbeville,50.1,1.8333,17.98,69,25,3.12,FR,1691713036
327,aykhal,66.0,111.5,18.16,72,100,3.03,RU,1691713036
328,naze,28.3667,129.4833,27.51,81,99,1.85,JP,1691712912
329,labrador city,52.9463,-66.9114,14.95,77,75,2.06,CA,1691712913
330,tari,12.4086,4.4914,25.26,83,100,4.81,NG,1691713036
331,emerald,-23.5333,148.1667,20.75,58,0,1.63,AU,1691713037
332,brejo,-3.6844,-42.7503,26.16,71,89,2.97,BR,1691713037
333,tralee,52.2704,-9.7026,13.64,97,21,2.73,IE,1691713037
334,kolpashevo,58.3131,82.9089,11.23,94,97,2.67,RU,1691713037
335,hithadhoo,-0.6,73.0833,27.74,76,72,5.51,MV,1691713037
336,revda,56.801,59.9303,11.69,76,34,1.33,RU,1691713037
337,laguna,38.421,-121.4238,36.84,35,0,4.12,US,1691713038
338,brunsbuttel,53.9,9.15,14.13,85,31,2.35,DE,1691713038
339,liwale,-9.7667,37.9333,16.16,79,8,1.27,TZ,1691713038
340,belyy yar,53.6039,91.3903,16.94,88,0,0.0,RU,1691713038
341,alamo,20.9167,-97.6833,34.8,60,11,7.41,MX,1691713038
342,gisborne,-38.6533,178.0042,10.07,64,80,7.45,NZ,1691713039
343,karukh,34.4811,62.5863,21.88,34,0,6.78,AF,1691713039
344,qianzhou,28.3167,109.7167,26.18,83,4,0.52,CN,1691713039
345,ketchikan,55.3422,-131.6461,16.26,88,100,5.14,US,1691713039
346,pago pago,-14.2781,-170.7025,29.55,84,40,4.63,AS,1691713039
347,cadale,2.7603,46.3222,24.54,82,65,8.7,SO,1691713040
348,arenapolis,-14.4503,-56.8461,27.43,31,24,2.23,BR,1691713040
349,kapuskasing,49.4169,-82.4331,17.05,72,75,4.63,CA,1691713040
350,santa ana de yacuma,-13.75,-65.4333,29.93,39,82,2.17,BO,1691713040
351,al fulah,11.7329,28.3579,27.55,60,55,1.73,SD,1691713040
352,tura,25.5198,90.2201,23.72,99,100,2.41,IN,1691713041
353,bubaque,11.2833,-15.8333,26.77,82,98,6.71,GW,1691713041
354,buraydah,26.326,43.975,30.25,12,13,5.38,SA,1691713041
355,puerto aysen,-45.4,-72.7,4.26,98,100,2.5,CL,1691712978
356,quibala,-10.7337,14.98,18.58,69,2,0.61,AO,1691713041
357,kirensk,57.7853,108.1119,16.75,96,100,3.46,RU,1691713041
358,sitka,57.0531,-135.33,15.94,88,100,1.54,US,1691713042
359,dolores,-36.3132,-57.6792,14.68,86,100,3.52,AR,1691713042
360,maine soroa,13.2114,12.0241,25.63,69,85,3.48,NE,1691713042
361,kemijarvi,66.7131,27.4306,12.37,88,2,2.13,FI,1691713042
362,namibe,-15.1961,12.1522,15.66,87,24,3.61,AO,1691713042
363,tira sujanpur,31.8333,76.5,25.07,86,60,0.96,IN,1691713042
364,lejanias,3.5251,-74.0216,21.38,94,58,1.88,CO,1691713042
365,at taj,24.2049,23.2857,31.31,27,22,4.85,LY,1691713043
366,gadzhiyevo,69.2551,33.3362,15.98,83,0,4.77,RU,1691713043
367,ilha de mocambique,-15.0342,40.7358,21.5,83,0,6.46,MZ,1691713043
368,dwarka,22.2394,68.9678,27.02,81,100,7.89,IN,1691713043
369,kambove,-10.8764,26.5969,13.49,46,11,1.92,CD,1691713043
370,vorkuta,67.5,64.0,4.29,98,80,3.85,RU,1691713044
371,pontianak,-0.0333,109.3333,23.99,88,75,3.09,ID,1691713043
372,illapel,-31.6308,-71.1653,11.44,76,66,0.93,CL,1691713044
373,sambava,-14.2667,50.1667,19.89,90,13,2.9,MG,1691713044
374,swift current,50.2834,-107.8014,19.45,63,0,4.63,CA,1691713044
375,armacao de buzios,-22.7469,-41.8817,22.03,85,2,8.28,BR,1691713045
376,luderitz,-26.6481,15.1594,17.31,65,17,1.61,NA,1691713045
377,kheralu,23.8833,72.6167,25.48,82,91,4.25,IN,1691713045
378,omdurman,15.6445,32.4777,27.6,64,100,4.62,SD,1691713045
379,glace bay,46.1969,-59.957,17.83,85,75,7.2,CA,1691713045
380,harper,4.375,-7.7169,24.12,84,100,3.89,LR,1691713045
381,kharp,66.8014,65.8081,7.8,88,8,2.51,RU,1691713046
382,ugoofaaru,5.6667,73.0,28.21,74,99,6.9,MV,1691713046
383,crane,31.3974,-102.3501,40.97,13,5,3.23,US,1691712825
384,remire-montjoly,4.9167,-52.2667,26.02,89,20,1.03,GF,1691713046
385,walvis bay,-22.9575,14.5053,13.38,95,79,3.18,NA,1691713047
386,dali,25.7,100.1833,18.39,94,100,0.92,CN,1691713047
387,fada,9.5667,8.3,19.5,95,100,0.82,NG,1691713047
388,ilebo,-4.3167,20.5833,23.09,74,51,0.55,CD,1691713047
389,brookings,44.3114,-96.7984,27.19,75,0,5.66,US,1691712870
390,palangkaraya,-2.2,113.8333,24.19,77,99,0.97,ID,1691713048
391,tsarychanka,48.937,34.4786,18.43,98,66,1.65,UA,1691713048
392,port-vila,-17.7338,168.3219,22.78,56,40,7.2,VU,1691713048
393,sarmiento,-45.5882,-69.07,7.8,63,94,13.14,AR,1691712956
394,angaur state,6.906,134.13,27.9,80,87,7.73,PW,1691713049
395,tocopilla,-22.092,-70.1979,19.13,68,74,4.37,CL,1691713049
396,skowhegan,44.7651,-69.7192,23.31,92,87,2.81,US,1691713049
397,rio grande,-32.035,-52.0986,17.75,98,87,5.52,BR,1691713049
398,ingeniero luis a. huergo,-39.0833,-67.2333,14.38,15,16,13.42,AR,1691713049
399,petauke,-14.2426,31.3253,14.89,72,13,4.76,ZM,1691713050
400,yashkul',46.1711,45.3435,27.55,42,10,6.03,RU,1691713050
401,navoloki,57.4657,41.9634,17.2,96,16,1.51,RU,1691713050
402,luwingu,-10.2621,29.9271,11.59,60,0,1.9,ZM,1691713050
403,vallegrande,-18.4897,-64.1069,13.47,87,0,2.37,BO,1691713050
404,cavnic,47.6667,23.8667,9.55,78,72,0.35,RO,1691713051
405,quellon,-43.1167,-73.6167,5.59,78,92,4.37,CL,1691713051
406,egilsstadir,65.2653,-14.3948,7.95,87,75,4.12,IS,1691713051
407,barentu,15.1139,37.5928,20.7,84,94,1.73,ER,1691713051
408,ivdel',60.6911,60.4206,10.06,88,23,1.79,RU,1691713051
409,souillac,-20.5167,57.5167,20.21,88,40,1.54,MU,1691713052
410,qulsary,46.9531,54.0198,26.31,31,0,3.92,KZ,1691713052
411,quatre cocos,-20.2078,57.7625,20.06,76,32,2.27,MU,1691713052
412,manokwari,-0.8667,134.0833,27.53,72,48,1.64,ID,1691713053
413,coruripe,-10.1256,-36.1756,22.83,89,13,4.29,BR,1691712970
414,ende,-8.8432,121.6623,25.17,72,79,1.17,ID,1691713053
415,lushun,38.8,121.2667,25.12,77,98,8.59,CN,1691712952
416,chonchi,-42.6128,-73.8092,5.07,90,83,1.82,CL,1691712995
417,amos,48.5669,-78.1162,15.14,86,39,2.42,CA,1691712902
418,san jose del guaviare,2.5729,-72.6459,23.8,94,91,0.64,CO,1691713054
419,vila franca do campo,37.7167,-25.4333,23.23,94,79,2.24,PT,1691713055
420,taoudenni,22.6783,-3.9836,38.84,8,26,8.55,ML,1691713055
421,isokyro,63.0117,22.3333,14.38,89,97,3.31,FI,1691713055
422,karlskrona,56.1616,15.5866,12.25,82,96,3.95,SE,1691713055
423,pervari,37.9357,42.5493,27.0,21,5,3.1,TR,1691713055
424,sunrise manor,36.2111,-115.0731,36.14,32,0,8.75,US,1691713055
425,kristiansund,63.1115,7.732,11.03,93,100,0.51,NO,1691713055
426,santa elena de uairen,4.6167,-61.1333,20.79,83,52,0.99,VE,1691713056
427,pandan,14.0453,124.1694,29.54,71,100,2.67,PH,1691713056
428,genhe,50.7833,121.5167,18.95,73,100,1.54,CN,1691713056
429,inarajan village,13.2736,144.7484,28.08,95,100,9.81,GU,1691713056
430,ulaangom,49.9811,92.0667,18.05,55,29,1.94,MN,1691713056
431,murun-kuren,49.6342,100.1625,15.07,76,6,0.51,MN,1691713056
432,bandundu,-3.3167,17.3667,27.01,55,85,1.72,CD,1691713057
433,praia da vitoria,38.7333,-27.0667,23.14,88,40,3.81,PT,1691713057
434,akureyri,65.6835,-18.0878,6.96,87,100,2.06,IS,1691712763
435,ilek,51.5271,53.3831,20.67,47,0,2.92,RU,1691713057
436,galliano,29.4422,-90.2992,33.33,62,0,4.63,US,1691713057
437,arauca,7.0847,-70.7591,25.98,94,20,0.0,CO,1691713057
438,sao jose da coroa grande,-8.8978,-35.1478,23.18,87,11,3.47,BR,1691713057
439,veshenskaya,49.6303,41.7334,21.78,69,96,5.44,RU,1691713058
440,mount pearl,47.5166,-52.7813,18.03,93,75,3.6,CA,1691713058
441,palmer,42.1584,-72.3287,21.75,85,100,5.66,US,1691712817
442,cosala,24.4125,-106.6908,28.24,76,78,0.89,MX,1691713058
443,darwin,-12.4611,130.8418,26.61,53,20,5.66,AU,1691713058
444,gargalianoi,37.0667,21.6333,23.53,74,0,4.32,GR,1691713058
445,chom bueng,13.62,99.5917,25.16,79,39,1.5,TH,1691713058
446,afaahiti,-17.75,-149.2833,26.93,67,72,8.0,PF,1691713059
447,sabzevar,36.2126,57.6819,25.88,25,0,5.84,IR,1691713059
448,kasongo-lunda,-6.4667,16.8167,25.74,44,94,0.97,CD,1691713059
449,hue,16.4667,107.6,31.06,58,20,2.06,VN,1691713059
450,alofi,-19.0595,-169.9187,27.94,78,75,4.63,NU,1691713059
451,broken hill,-31.95,141.4333,13.3,51,0,3.33,AU,1691713059
452,guerrero negro,27.9769,-114.0611,24.74,70,5,8.55,MX,1691713015
453,san luis de la loma,17.2706,-100.8939,29.27,77,90,2.2,MX,1691713060
454,feodosiya,45.0333,35.3833,23.92,81,23,4.17,UA,1691713060
455,geraldton,-28.7667,114.6,13.23,94,100,1.54,AU,1691713060
456,bogdanovich,56.7803,62.0494,14.33,70,92,3.26,RU,1691713060
457,kourou,5.1552,-52.6478,26.03,89,35,2.84,GF,1691713060
458,korla,41.7597,86.1469,27.28,27,0,5.49,CN,1691713061
459,kitahiroshima,42.9758,141.5672,28.01,79,99,4.66,JP,1691713061
460,lompoc,34.6391,-120.4579,27.79,74,100,2.57,US,1691713061
461,berberati,4.2612,15.7922,20.63,98,100,1.15,CF,1691713061
462,la'ie,21.6477,-157.9253,31.98,64,27,6.91,US,1691712811
463,curuzu cuatia,-29.7917,-58.0546,20.53,83,94,2.5,AR,1691713062
464,iquitos,-3.7481,-73.2472,26.02,78,20,1.03,PE,1691713062
465,arcot,12.9,79.3333,25.75,77,100,2.47,IN,1691713062
466,lata,40.1629,-8.3327,18.93,95,1,0.82,PT,1691713062
467,el granada,37.5027,-122.4694,30.51,78,100,5.66,US,1691713062
468,maricopa,33.0581,-112.0476,42.33,19,0,2.06,US,1691713062
469,kuqa,41.7278,82.9364,28.58,27,76,0.47,CN,1691713062
470,haiku-pauwela,20.9219,-156.3051,29.01,70,40,9.26,US,1691713063
471,island harbour,50.724,-1.2758,18.85,92,61,1.79,GB,1691713063
472,beypazari,40.1675,31.9211,21.49,77,1,2.09,TR,1691713063
473,anuradhapura,8.3565,80.4173,24.67,86,92,3.9,LK,1691713063
474,iyidere,41.0119,40.3619,25.98,93,100,0.77,TR,1691713063
475,sambhal,28.5833,78.55,26.63,85,70,1.13,IN,1691713064
476,dzuunharaa,48.8523,106.4579,16.23,90,70,1.17,MN,1691713064
477,bangkalan,-7.0455,112.7351,22.97,79,32,1.15,ID,1691712835
478,hakha,22.65,93.6167,16.45,97,99,0.95,MM,1691713064
479,ekibastuz,51.6667,75.3667,15.74,76,100,6.05,KZ,1691713064
480,saudarkrokur,65.7461,-19.6394,6.47,93,75,2.58,IS,1691713064
481,hastings,50.8552,0.5729,18.77,31,23,3.25,GB,1691713064
482,kantunilkin,21.0917,-87.45,32.31,53,1,3.31,MX,1691713065
483,wajir,1.7471,40.0573,23.13,61,73,6.58,KE,1691713065
484,mudanjiang,44.5833,129.6,19.71,97,100,5.27,CN,1691713065
485,coquimbo,-29.9533,-71.3436,14.85,88,0,1.54,CL,1691713065
486,klaksvik,62.2266,-6.589,11.51,96,85,6.19,FO,1691713066
487,sarina,-21.4333,149.2167,24.04,61,8,2.5,AU,1691713066
488,bayganin,48.6947,55.8742,22.69,35,0,3.48,KZ,1691713066
489,jiayuguan,39.8167,98.3,22.83,39,3,0.76,CN,1691713066
490,vesoul,47.5833,5.8333,17.45,84,44,1.47,FR,1691713066
491,shuangcheng,45.35,126.2833,22.82,91,100,6.12,CN,1691713066
492,bolobo,-2.1667,16.2333,23.25,73,84,1.0,CD,1691713067
493,san juan de miraflores,-12.1629,-76.9635,20.29,84,65,3.51,PE,1691713067
494,bodaybo,57.8506,114.1933,18.74,89,98,0.48,RU,1691713067
495,chebba,35.2372,11.115,24.89,69,0,1.46,TN,1691713020
496,linxia chengguanzhen,35.6003,103.2064,18.62,84,100,1.32,CN,1691713067
497,porto belo,-27.1578,-48.5531,19.97,97,81,2.44,BR,1691713067
498,gumdag,39.2061,54.5906,31.58,27,0,1.88,TM,1691713067
499,castillos,-34.1667,-53.8333,15.79,92,98,2.28,UY,1691713067
500,klyuchi,52.2667,79.1667,15.33,90,98,5.51,RU,1691713068
501,redencao,-4.2258,-38.7306,23.25,88,57,0.88,BR,1691713068
502,tafuna,-14.3358,-170.72,29.97,84,40,4.63,AS,1691713068
503,bandarbeyla,9.4942,50.8122,23.88,83,9,12.37,SO,1691713068
504,brandon,27.9378,-82.2859,33.49,73,0,2.57,US,1691712807
505,tabou,4.423,-7.3528,23.99,86,100,3.6,CI,1691713068
506,sindgi,16.9167,76.2333,24.04,75,67,5.72,IN,1691713068
507,tara,56.8944,74.371,11.8,91,100,3.98,RU,1691713068
508,tambura,5.6,27.4667,20.1,97,78,1.36,SS,1691713069
509,daoukro,7.0591,-3.9631,21.18,99,100,1.21,CI,1691713069
510,bandar lampung,-5.4254,105.258,23.14,89,65,1.89,ID,1691713069
511,babol,36.5513,52.679,26.09,53,0,1.2,IR,1691713069
512,nanlong,31.3533,106.0631,27.9,84,74,1.49,CN,1691713069
513,wanning,18.8003,110.3967,29.06,73,99,4.41,CN,1691713069
514,mainburg,48.65,11.7833,15.35,82,0,1.03,DE,1691713069
515,yanbu,24.0891,38.0637,30.38,50,3,6.89,SA,1691712834
516,al jawf,29.5,38.75,28.93,21,10,4.7,SA,1691713070
517,mindelo,16.8901,-24.9804,24.82,78,22,7.84,CV,1691713070
518,galle,6.0367,80.217,26.16,84,75,2.89,LK,1691713070
519,ta`u,-14.2336,-169.5144,27.63,73,100,5.77,AS,1691713070
520,xinzhi,36.4989,111.7047,28.47,58,100,1.72,CN,1691713070
521,fiambala,-27.6871,-67.6149,20.57,8,97,0.42,AR,1691713070
522,sydney,-33.8679,151.2073,16.84,53,20,5.14,AU,1691712360
523,zheleznodorozhnyy,55.7503,38.0042,18.29,81,54,2.31,RU,1691713071
524,qamdo,31.1667,97.2333,8.06,88,100,0.92,CN,1691713071
525,ust'-barguzin,53.45,108.9833,13.76,89,97,3.14,RU,1691713071
526,buka,40.8108,69.1986,22.73,35,0,1.7,UZ,1691713071
527,soure,-0.7167,-48.5233,26.33,80,71,4.76,BR,1691713071
528,zima,53.9202,102.0442,16.29,79,3,1.12,RU,1691713072
529,lakatoro,-16.0999,167.4164,22.77,55,76,8.29,VU,1691713072
530,korhogo,9.45,-5.6333,21.31,98,100,2.15,CI,1691713072
531,ronneby,56.21,15.276,12.28,94,100,1.54,SE,1691713072
532,machico,32.7,-16.7667,26.35,51,20,10.29,PT,1691713072
533,fallon,39.4735,-118.7774,35.51,14,20,0.0,US,1691712964
534,escanaba,45.7453,-87.0646,21.17,60,0,3.6,US,1691713073
535,kyabe,9.4515,18.9449,22.52,93,52,1.23,TD,1691713073
536,notodden,59.5594,9.2585,12.78,85,44,1.49,NO,1691713073
537,la porte,29.6658,-95.0194,37.34,72,0,8.23,US,1691712831
538,fredericksburg,38.3032,-77.4605,27.62,74,0,3.6,US,1691712792
539,pauini,-7.7136,-66.9764,28.34,53,60,1.43,BR,1691713073
540,rostovka,55.3842,71.8891,12.99,70,100,4.89,RU,1691713073
541,fochville,-26.4886,27.4939,9.19,52,7,3.15,ZA,1691713073
542,ar ruseris,11.8659,34.3869,21.66,92,100,1.13,SD,1691713074
543,berdigestyakh,62.0989,126.6992,20.37,61,0,3.78,RU,1691713074
544,rockland,41.1668,-74.0496,21.65,93,100,1.52,US,1691713074
545,carrigaline,51.8117,-8.3986,15.86,100,75,5.66,IE,1691713074
546,thunder bay,48.4001,-89.3168,18.99,59,75,2.06,CA,1691712872
547,lobujya,27.95,86.8167,4.37,85,98,1.03,NP,1691713074
548,itoman,26.1247,127.6694,29.21,89,75,3.09,JP,1691712917
549,al fuwayliq,26.4432,43.2534,29.91,13,33,3.96,SA,1691713075
550,playa del ingles,27.7567,-15.5787,26.86,80,9,8.09,ES,1691712792
551,paimpol,48.7784,-3.0438,20.32,90,45,5.22,FR,1691713075
552,aktau,43.65,51.2,25.32,43,4,4.67,KZ,1691713075
553,sault ste. marie,46.5168,-84.3333,18.16,76,75,8.23,CA,1691712891
554,kerema,-7.9631,145.7785,25.65,73,76,0.96,PG,1691713075
555,aleg,17.0481,-13.9209,31.35,45,31,8.13,MR,1691713075
556,hamburg,53.55,10.0,13.22,89,0,0.51,DE,1691712804
557,al kharijah,25.4514,30.5464,30.02,24,0,3.85,EG,1691713075
558,albert lea,43.648,-93.3683,27.01,69,0,2.06,US,1691713076
559,alaghsas,17.0187,8.0168,29.74,49,100,2.97,NE,1691713077
560,gambela,8.25,34.5833,20.35,93,26,1.26,ET,1691713077
561,rawa mazowiecka,51.7644,20.2549,14.7,62,83,1.02,PL,1691713077
562,bardai,11.65,7.2333,21.57,92,100,3.44,NG,1691713077
563,constitucion,-35.3333,-72.4167,9.88,86,95,1.5,CL,1691713077
564,scottburgh,-30.2867,30.7532,15.98,87,60,5.99,ZA,1691713078
565,san antonio de pale,-1.4014,5.6325,23.42,87,71,4.21,GQ,1691713078
566,tambovka,50.0969,128.0489,22.09,62,7,3.86,RU,1691713078
567,plettenberg bay,-34.0527,23.3716,19.98,40,0,2.67,ZA,1691713078
568,pecos,31.4229,-103.4932,42.46,13,40,0.0,US,1691713078
569,ust'-ilimsk,58.0006,102.6619,17.35,71,100,1.72,RU,1691713078
570,new norfolk,-42.7826,147.0587,12.16,75,100,2.19,AU,1691713078
571,novospasskoye,53.1468,47.7514,19.75,41,1,1.72,RU,1691713079
572,zyryanskoye,56.8306,86.6258,12.63,92,98,1.75,RU,1691713079
573,aleshtar,33.8633,48.2619,26.02,25,0,3.2,IR,1691713079
574,vitorino freire,-4.0667,-45.1667,27.01,57,46,1.0,BR,1691713079
575,tres arroyos,-38.3739,-60.2798,11.24,91,100,1.93,AR,1691713079
576,sorong,-0.8833,131.25,26.17,75,91,5.88,ID,1691713079
577,arzgir,45.3728,44.2206,26.56,50,0,6.64,RU,1691713079
578,barguzin,53.6167,109.6167,15.69,90,100,3.43,RU,1691713080
579,rio branco do sul,-25.19,-49.3142,16.25,98,51,0.82,BR,1691713080
580,canyon,34.9803,-101.9188,36.96,29,23,2.24,US,1691713080
581,hoemul-li,41.4339,129.67,21.06,97,100,3.92,KP,1691713080
582,saint-pierre,-21.3393,55.4781,19.82,64,0,3.09,RE,1691713080
583,tutoia,-2.7619,-42.2744,26.31,79,21,4.87,BR,1691713081
584,albertina,-22.2008,-46.6158,18.16,60,21,2.85,BR,1691713081
585,plunge,55.9114,21.8442,15.33,87,100,2.15,LT,1691713081
