City_ID,City,Lat,Lng,Max Temp,Humidity,Cloudiness,Wind Speed,Country,Date
0,banff,51.1762,-115.5698,20.57,39,67,3.6,CA,1691711290
1,port-aux-francais,-49.35,70.2167,3.61,85,99,16.86,TF,1691711349
2,vilyuchinsk,52.9306,158.4028,17.15,66,71,1.79,RU,1691711350
3,west island,-12.1568,96.8225,24.99,88,100,6.17,CC,1691711117
4,gobabis,-22.45,18.9667,12.45,39,53,5.49,NA,1691711351
5,luganville,-15.5333,167.1667,22.96,57,95,3.22,VU,1691711351
6,saint david's,12.0333,-61.6667,28.69,84,20,5.66,GD,1691711351
7,kruisfontein,-34.0033,24.7314,18.82,29,1,6.27,ZA,1691711351
8,waitangi,-43.9535,-176.5597,12.68,95,79,1.34,NZ,1691711351
9,tazovsky,67.4667,78.7,4.57,64,0,9.22,RU,1691711156
10,isafjordur,66.0755,-23.124,7.36,81,85,9.32,IS,1691711352
11,mocimboa,-11.3167,40.35,18.47,96,7,1.92,MZ,1691711352
12,ancud,-41.8697,-73.8203,8.63,59,97,9.72,CL,1691711252
13,college,64.8569,-147.8028,22.34,80,75,1.54,US,1691711130
14,bayanhongor,46.7167,100.1167,11.97,64,3,0.96,MN,1691711352
15,grytviken,-54.2811,-36.5092,-0.32,99,100,3.73,GS,1691711352
16,st. john's,47.5649,-52.7093,19.04,92,75,2.57,CA,1691711259
17,kouango,4.9934,19.9619,21.57,98,100,0.34,CF,1691711353
18,tiksi,71.6872,128.8694,18.98,41,6,5.18,RU,1691711353
19,okha,53.5739,142.9478,15.91,75,30,4.84,RU,1691711353
20,utrik,11.2278,169.8474,27.89,75,8,5.41,MH,1691711141
21,flin flon,54.7682,-101.865,16.91,59,100,4.12,CA,1691711353
22,albany,42.6001,-73.9662,21.05,86,93,1.27,US,1691711353
23,fujin,47.26,132.0322,17.79,91,100,4.84,CN,1691711354
24,puerto ayora,-0.7393,-90.3518,24.75,92,55,2.24,EC,1691711123
25,georgetown,5.4112,100.3354,26.64,94,20,1.03,MY,1691711195
26,ushuaia,-54.8,-68.3,0.81,93,100,2.06,AR,1691711121
27,puerto natales,-51.7236,-72.4875,-1.25,96,57,1.08,CL,1691711234
28,edinburgh of the seven seas,-37.0676,-12.3116,12.09,73,64,13.35,SH,1691711119
29,stanley,54.868,-1.6985,19.01,83,0,3.6,GB,1691711122
30,soio,-6.1349,12.3689,21.43,86,3,2.77,AO,1691711373
31,ketchikan,55.3422,-131.6461,16.26,88,100,5.66,US,1691711154
32,luocheng,29.3848,104.0286,25.55,92,78,1.25,CN,1691711373
33,cedral,23.8,-100.7333,27.56,35,46,9.92,MX,1691711373
34,shuangjiang,26.1547,109.7138,23.98,94,11,0.62,CN,1691711373
35,invercargill,-46.4,168.35,6.12,80,100,1.79,NZ,1691711261
36,avarua,-21.2078,-159.775,24.03,88,75,6.69,CK,1691711122
37,bilibino,68.0546,166.4372,12.76,71,99,2.09,RU,1691711374
38,kingston,17.997,-76.7936,27.89,97,94,0.44,JM,1691711142
39,rio preto da eva,-2.6994,-59.6997,26.63,69,52,1.73,BR,1691711374
40,vorkuta,67.5,64.0,4.29,98,80,3.85,RU,1691711374
41,gadzhiyevo,69.2551,33.3362,15.22,83,0,5.91,RU,1691711375
42,viedma,-40.8135,-62.9967,15.34,37,100,7.6,AR,1691711375
43,hargeysa,9.56,44.065,22.02,56,70,10.86,SO,1691711375
44,panama city beach,30.1766,-85.8055,33.07,71,0,5.14,US,1691711129
45,acarau,-2.8856,-40.12,26.54,83,20,9.27,BR,1691711375
46,chinde,26.8418,88.0763,20.77,99,100,0.06,NP,1691711375
47,papao,-17.75,-149.55,27.82,64,53,8.74,PF,1691711376
48,kone,-21.0595,164.8658,22.4,40,0,3.26,NC,1691711376
49,vernon,50.2581,-119.2691,26.53,38,90,1.54,CA,1691711112
50,enewetak,11.3474,162.3373,28.51,77,56,5.39,MH,1691711376
51,lihue,21.9789,-159.3672,30.77,59,0,7.2,US,1691711376
52,kodiak,57.79,-152.4072,14.73,77,75,0.0,US,1691711377
53,thompson,55.7435,-97.8558,19.09,45,75,1.54,CA,1691711377
54,sligo,54.2697,-8.4694,14.22,96,77,3.56,IE,1691711377
55,abepura,-2.6333,140.5833,27.45,74,20,0.0,ID,1691711377
56,port alfred,-33.5906,26.891,19.65,48,0,4.5,ZA,1691711136
57,butterworth,5.3991,100.3638,26.7,94,20,1.03,MY,1691711378
58,ishigaki,24.3448,124.1572,27.07,94,75,1.03,JP,1691711175
59,sao joao da barra,-21.6403,-41.0511,23.05,85,9,8.32,BR,1691711123
60,kavaratti,10.5669,72.642,27.61,77,94,7.28,IN,1691711378
61,bishkul,54.7803,69.1033,13.56,69,60,4.12,KZ,1691711378
62,yushu,44.8,126.5333,21.69,89,100,5.97,CN,1691711378
63,talas,38.6908,35.5538,16.37,51,0,1.03,TR,1691711379
64,presidencia de la plaza,-27.0015,-59.8424,22.85,67,30,2.04,AR,1691711379
65,gilgit,35.9221,74.3087,27.6,50,32,1.1,PK,1691711379
66,saryozek,44.3583,77.9753,19.94,60,89,3.44,KZ,1691711379
67,constantia,44.1833,28.65,21.5,58,100,5.04,RO,1691711379
68,portland,45.5234,-122.6762,29.41,43,20,6.69,US,1691711050
69,jamestown,42.097,-79.2353,21.8,71,75,4.63,US,1691711379
70,floro,61.5996,5.0328,9.98,87,100,3.6,NO,1691711380
71,hakui,36.8833,136.7833,35.07,62,0,1.47,JP,1691711380
72,yuzhno-kurilsk,44.0306,145.8556,21.71,90,99,6.2,RU,1691711380
73,port mathurin,-19.6833,63.4167,23.03,78,61,9.66,MU,1691711119
74,adam,22.3756,57.5233,27.44,64,99,4.02,OM,1691711380
75,nuku'alofa,-21.1333,-175.2,23.19,78,100,4.12,TO,1691711380
76,nova xavantina,-14.6667,-52.35,26.82,36,1,1.88,BR,1691711381
77,qamdo,31.1667,97.2333,7.81,85,100,1.78,CN,1691711381
78,inirida,3.8653,-67.9239,23.76,97,82,1.49,CO,1691711381
79,zykovo,55.9519,93.1461,13.41,64,74,1.58,RU,1691711381
80,longyearbyen,78.2186,15.6401,9.91,81,100,1.54,SJ,1691711119
81,blackmans bay,-43.0167,147.3167,11.52,72,100,2.17,AU,1691711382
82,bayramaly,37.6185,62.1671,26.86,27,0,3.28,TM,1691711383
83,ouesso,1.6136,16.0517,22.32,94,60,0.39,CG,1691711383
84,xai-xai,-25.0519,33.6442,16.01,71,12,2.26,MZ,1691711383
85,arica,-18.475,-70.3042,19.13,72,100,5.14,CL,1691711085
86,makurazaki,31.2667,130.3167,26.97,77,88,0.82,JP,1691711383
87,colonia,50.9333,6.95,17.76,82,0,1.54,DE,1691711279
88,touros,-5.1989,-35.4608,24.83,80,49,6.51,BR,1691711383
89,margaret river,-33.95,115.0667,12.13,77,82,2.41,AU,1691711384
90,bethel,41.3712,-73.414,22.05,86,100,2.57,US,1691711124
91,santa sylvina,-27.8326,-61.1375,22.25,54,10,1.81,AR,1691711384
92,goth phulji,26.8825,67.6807,32.62,55,53,4.72,PK,1691711384
93,adamstown,-25.066,-130.1015,17.85,61,18,10.68,PN,1691711118
94,acapulco de juarez,16.8634,-99.8901,31.9,66,40,4.63,MX,1691711198
95,nelson bay,-32.7167,152.15,15.62,59,0,3.13,AU,1691711384
96,lengshuijiang,27.6881,111.4294,25.95,81,0,0.95,CN,1691711385
97,palmer,42.1584,-72.3287,21.95,85,100,2.06,US,1691711385
98,vorgashor,67.5833,63.95,4.09,97,86,4.22,RU,1691711385
99,ribeira grande,38.5167,-28.7,21.54,86,59,3.58,PT,1691711385
100,qaqortoq,60.7167,-46.0333,6.66,79,93,0.63,GL,1691711385
101,grande prairie,55.1667,-118.8027,20.1,42,75,8.23,CA,1691711086
102,pisco,-13.7,-76.2167,20.03,77,100,8.75,PE,1691711385
103,bredasdorp,-34.5322,20.0403,12.52,72,0,0.88,ZA,1691711386
104,hermanus,-34.4187,19.2345,15.43,59,0,1.06,ZA,1691711386
105,nova sintra,14.8667,-24.7167,22.72,75,24,5.58,CV,1691711136
106,yellowknife,62.456,-114.3525,20.29,49,100,2.06,CA,1691711392
107,cruzeiro do sul,-29.5128,-51.9853,19.71,90,54,1.71,BR,1691711392
108,puerto carreno,6.189,-67.4859,30.99,70,20,4.12,CO,1691711392
109,moncks corner,33.196,-80.0131,32.68,61,0,2.06,US,1691711175
110,vila velha,-20.3297,-40.2925,21.97,83,100,1.54,BR,1691711225
111,hawaiian paradise park,19.5933,-154.9731,27.8,78,75,3.09,US,1691711393
112,iqaluit,63.7506,-68.5145,6.5,87,20,4.63,CA,1691711393
113,tuy hoa,13.0833,109.3,29.21,66,27,3.45,VN,1691711393
114,tolanaro,-25.0319,46.9987,19.04,68,75,3.09,MG,1691711393
115,mahibadhoo,3.7833,72.9667,28.21,74,84,6.36,MV,1691711393
116,jingdezhen,29.2947,117.2079,28.42,73,0,1.31,CN,1691711393
117,tegina,10.0706,6.1906,22.68,95,100,1.13,NG,1691711394
118,macau,22.2006,113.5461,27.89,89,40,3.09,MO,1691711394
119,qianzhou,28.3167,109.7167,26.58,83,3,0.4,CN,1691711394
120,ardestan,33.3761,52.3694,26.01,19,0,1.92,IR,1691711394
121,ola,59.5833,151.2833,18.97,67,12,2.27,RU,1691711119
122,olonkinbyen,70.9221,-8.7187,6.42,99,100,4.12,SJ,1691711116
123,hamilton,39.1834,-84.5333,27.01,68,40,5.14,US,1691710759
124,geraldton,-28.7667,114.6,13.23,94,100,2.57,AU,1691711188
125,san patricio,28.017,-97.5169,35.97,59,0,8.16,US,1691711395
126,moroto,2.5345,34.6666,19.02,78,11,1.01,UG,1691711395
127,mahina,-17.5065,-149.489,27.87,57,75,3.6,PF,1691711395
128,udachny,66.4167,112.4,16.36,82,91,2.18,RU,1691711395
129,erdenet,49.0333,104.0833,13.1,78,6,0.71,MN,1691711395
130,howrah,22.5892,88.3103,27.0,83,75,3.09,IN,1691711294
131,papatowai,-46.5619,169.4708,6.48,87,100,0.95,NZ,1691711395
132,alaghsas,17.0187,8.0168,29.74,49,100,2.97,NE,1691711396
133,ust-nera,64.5667,143.2,22.14,39,15,0.81,RU,1691711396
134,jinxiang,27.4327,120.6062,28.27,80,66,1.83,CN,1691711169
135,lepsy,46.235,78.9456,25.07,42,57,2.96,KZ,1691711396
136,at taj,24.2049,23.2857,31.31,27,22,4.85,LY,1691711396
137,kargasok,59.0556,80.8572,12.13,98,100,4.86,RU,1691711396
138,spring creek,40.7266,-115.5859,31.83,14,0,4.23,US,1691711396
139,saipan,15.1355,145.701,25.92,100,75,3.6,MP,1691711397
140,hithadhoo,-0.6,73.0833,27.74,76,72,5.51,MV,1691711397
141,auki,-8.7676,160.7034,25.54,88,99,3.83,SB,1691711145
142,icano,-28.9193,-65.3282,19.32,40,18,2.61,AR,1691711397
143,morondava,-20.2833,44.2833,21.16,64,0,5.44,MG,1691711402
144,am timan,11.0297,20.2827,22.46,88,42,0.81,TD,1691711403
145,pitimbu,-7.4706,-34.8086,24.33,83,22,4.94,BR,1691711258
146,keflavik,64.0049,-22.5624,13.95,93,40,2.57,IS,1691711403
147,les cayes,18.2,-73.75,28.05,78,85,2.73,HT,1691711403
148,puerto cabezas,14.0351,-83.3888,30.98,74,40,2.06,NI,1691711403
149,hasaki,35.7333,140.8333,29.05,79,8,5.82,JP,1691711404
150,ilulissat,69.2167,-51.1,7.01,81,75,2.06,GL,1691711404
151,ribeira brava,32.65,-17.0667,26.35,74,1,2.93,PT,1691711404
152,lebu,-37.6167,-73.65,9.29,77,57,5.21,CL,1691711404
153,punta arenas,-53.15,-70.9167,1.73,80,100,4.7,CL,1691711280
154,sitka,57.0531,-135.33,15.94,82,100,2.06,US,1691711135
155,bamboo flat,11.7,92.7167,28.05,83,75,2.57,IN,1691711405
156,xinhui,22.456,113.0482,27.3,80,91,1.76,CN,1691711405
157,liman,48.9884,37.8023,21.87,77,88,4.57,UA,1691711405
158,horta,38.5333,-28.6333,21.12,86,63,3.58,PT,1691711406
159,san fernando,15.0286,120.6898,27.85,78,94,0.7,PH,1691711406
160,trairi,-3.2778,-39.2689,25.07,87,20,3.85,BR,1691711406
161,badger,64.8,-147.5333,22.3,77,75,1.54,US,1691711406
162,arno,60.1167,18.6333,13.77,90,100,4.08,SE,1691711406
163,port lincoln,-34.7333,135.8667,11.61,70,48,2.36,AU,1691711407
164,nurmes,63.5421,29.1397,13.74,86,15,2.99,FI,1691711407
165,minas de marcona,-15.2119,-75.1103,12.7,88,46,7.08,PE,1691711407
166,olinda,-8.0089,-34.8553,23.85,88,75,6.69,BR,1691711121
167,hammerfest,70.6634,23.6821,20.25,73,75,4.12,NO,1691711407
168,saint-philippe,-21.3585,55.7679,19.77,82,8,2.27,RE,1691711147
169,mount gambier,-37.8333,140.7667,10.96,87,100,3.35,AU,1691711150
170,miri,4.4148,114.0089,25.08,94,40,1.03,MY,1691711408
171,san tan valley,33.1911,-111.528,41.53,22,0,6.69,US,1691711254
172,fengxiang,47.5833,130.8333,17.61,90,100,4.28,CN,1691711408
173,ulsteinvik,62.3432,5.8487,13.2,88,100,1.34,NO,1691711408
174,fort bragg,35.139,-79.006,31.08,65,20,4.12,US,1691711408
175,fortuna,40.5982,-124.1573,22.18,77,40,6.17,US,1691711140
176,sao raimundo das mangabeiras,-7.0219,-45.4811,26.43,38,5,1.98,BR,1691711409
177,petropavlovsk-kamchatsky,53.0452,158.6483,16.33,63,20,1.0,RU,1691711136
178,ko pha ngan,9.7578,100.0291,25.38,76,70,6.63,TH,1691711409
179,poso,-1.3959,120.7524,27.09,77,100,1.14,ID,1691711409
180,alofi,-19.0595,-169.9187,27.94,78,40,3.6,NU,1691711409
181,amga,60.8953,131.9608,20.21,74,7,2.05,RU,1691711410
182,vadso,70.0744,29.7487,20.09,73,100,6.17,NO,1691711410
183,jiagedaqi,50.4167,124.1167,19.09,81,68,0.68,CN,1691711410
184,pechora,65.1472,57.2244,10.84,82,9,2.49,RU,1691711410
185,nar'yan-mar,67.6713,53.087,10.1,82,17,1.32,RU,1691711164
186,xinqing,48.2333,129.5,18.35,88,75,2.29,CN,1691711411
187,ahmadpur east,29.1431,71.2598,31.49,55,79,8.18,PK,1691711411
188,ibshaway,29.358,30.6814,24.93,66,0,5.42,EG,1691711411
189,inarajan village,13.2736,144.7484,28.0,87,100,9.81,GU,1691711411
190,san pedro pochutla,15.7333,-96.4667,30.95,75,68,1.97,MX,1691711411
191,buka,40.8108,69.1986,22.73,35,0,1.7,UZ,1691711411
192,villa de arista,22.65,-100.8333,24.02,48,86,5.95,MX,1691711411
193,santa vitoria do palmar,-33.5189,-53.3681,16.36,94,100,2.41,BR,1691711412
194,la punta,-33.1837,-66.3127,13.01,51,4,5.91,AR,1691711412
195,togur,58.3631,82.8265,11.21,95,99,2.75,RU,1691711412
196,isla del bosque,22.7333,-105.85,30.56,67,98,3.15,MX,1691711412
197,kuraymah,18.55,31.85,33.77,36,68,4.86,SD,1691711412
198,uturoa,-16.7333,-151.4333,25.05,69,86,8.22,PF,1691711412
199,bac kan,22.1333,105.8333,25.34,99,94,0.33,VN,1691711413
200,klyuchi,52.2667,79.1667,15.33,90,98,5.51,RU,1691711413
201,port elizabeth,-33.918,25.5701,20.05,82,0,3.09,ZA,1691711119
202,polyarnyy,69.1989,33.4478,15.95,84,0,4.6,RU,1691711413
203,viamao,-30.0811,-51.0233,21.14,91,0,3.6,BR,1691711413
204,igarka,67.4667,86.5833,10.53,92,100,6.27,RU,1691711414
205,kachkanar,58.7,59.4948,9.25,90,58,1.81,RU,1691711414
206,hulan,45.9833,126.6,22.06,88,88,6.66,CN,1691711414
207,mana,5.6592,-53.7767,25.97,87,46,4.21,GF,1691711414
208,saint-pierre,-21.3393,55.4781,19.82,64,0,3.09,RE,1691711414
209,greenville,35.6127,-77.3663,29.09,79,75,3.6,US,1691711310
210,karkira,36.9292,6.5856,26.96,36,1,2.01,DZ,1691711415
211,bathurst,-33.4166,149.5806,9.88,60,0,2.81,AU,1691711415
212,remire-montjoly,4.9167,-52.2667,26.02,89,40,0.0,GF,1691711415
213,whitehorse,60.7161,-135.0538,15.17,82,75,1.79,CA,1691711415
214,taltal,-25.4,-70.4833,18.01,63,49,2.28,CL,1691711230
215,hobyo,5.3505,48.5268,24.38,85,66,10.78,SO,1691711415
216,tura,25.5198,90.2201,23.72,99,100,2.41,IN,1691711152
217,wailua homesteads,22.0669,-159.378,30.44,69,0,7.2,US,1691711416
218,flying fish cove,-10.4217,105.6791,23.82,88,100,4.63,CX,1691711416
219,hashtrud,37.4779,47.0508,20.98,37,0,1.5,IR,1691711416
220,pudasjarvi,65.3833,26.9167,12.84,84,37,2.53,FI,1691711416
221,mount pleasant,32.7941,-79.8626,32.77,62,0,3.6,US,1691711399
222,plesetsk,62.708,40.2916,18.39,89,75,0.98,RU,1691711417
223,nago,26.5881,127.9761,28.47,76,93,1.01,JP,1691711417
224,walvis bay,-22.9575,14.5053,13.53,94,79,3.6,NA,1691711417
225,michigan city,41.7075,-86.895,27.29,88,40,0.0,US,1691711207
226,talnakh,69.4865,88.3972,9.56,63,99,7.83,RU,1691711418
227,callao,-12.0667,-77.15,21.16,73,100,3.6,PE,1691711418
228,puerto baquerizo moreno,-0.9,-89.6,23.91,82,86,5.63,EC,1691711418
229,aras-asan,8.8908,126.3033,27.24,79,98,2.73,PH,1691711418
230,fort st. john,56.2499,-120.8529,17.94,77,75,1.03,CA,1691711323
231,medicine hat,50.0501,-110.6683,24.55,46,75,5.66,CA,1691711225
232,waddan,29.1614,16.139,24.58,66,0,4.94,LY,1691711419
233,evergreen,39.6333,-105.3172,27.44,34,83,0.45,US,1691711419
234,esikhaleni,-28.871,31.8996,15.26,86,0,4.17,ZA,1691711419
235,kahramanmaras,38.0,37.0,19.13,48,0,0.65,TR,1691711420
236,deir ez-zor,35.3359,40.1408,31.92,40,0,7.24,SY,1691711420
237,blackfoot,43.1905,-112.345,31.45,15,30,9.29,US,1691711420
238,norman gardens,-23.3224,150.5393,19.29,68,0,1.03,AU,1691711420
239,atafu village,-8.5421,-172.5159,28.15,74,39,4.74,TK,1691711420
240,chonchi,-42.6128,-73.8092,6.56,90,83,1.82,CL,1691711421
241,chibougamau,49.9168,-74.3659,18.79,59,100,2.57,CA,1691711239
242,zhytkavichy,52.2168,27.8561,14.07,75,99,1.09,BY,1691711421
243,san antonio de pale,-1.4014,5.6325,23.42,87,71,4.21,GQ,1691711421
244,mersa matruh,31.3525,27.2453,26.11,69,0,2.57,EG,1691711421
245,yur'yevets,57.3201,43.1041,17.92,92,17,0.69,RU,1691711422
246,pinotepa nacional,16.3167,-98.0167,29.34,67,90,2.36,MX,1691711422
247,paka,4.6374,103.4368,24.99,94,20,0.0,MY,1691711422
248,chernyshevskiy,63.0128,112.4714,18.71,72,100,2.82,RU,1691711422
249,anadyr,64.75,177.4833,10.56,66,100,4.0,RU,1691711142
250,terbanggi besar,-4.8667,105.2333,23.28,90,45,2.08,ID,1691711422
251,likasi,-10.9814,26.7333,13.61,48,7,1.82,CD,1691711423
252,mejit,10.2753,170.8646,27.84,77,71,5.24,MH,1691711423
253,esmeralda,21.8525,-78.1169,28.38,71,27,3.93,CU,1691711423
254,xining,36.6167,101.7667,16.04,93,100,0.79,CN,1691711423
255,leava,-14.3,-178.1667,27.1,81,80,4.17,WF,1691711423
256,bonthe,7.5264,-12.505,25.14,83,97,4.85,SL,1691711423
257,usinsk,65.9939,57.5281,10.67,82,28,3.71,RU,1691711424
258,tosontsengel,48.7567,98.2839,13.21,78,31,0.48,MN,1691711424
259,nikki,9.9401,3.2108,21.92,96,99,1.82,BJ,1691711424
260,anatuya,-28.4606,-62.8347,22.83,42,2,3.17,AR,1691711424
261,pemangkat,1.1667,108.9667,26.27,86,97,4.18,ID,1691711424
262,sandnessjoen,66.0217,12.6316,11.29,84,79,4.38,NO,1691711425
263,reggane,26.7158,0.1714,35.89,13,0,4.54,DZ,1691711425
264,hami,42.8,93.45,28.46,21,0,3.55,CN,1691711425
265,colares,38.7992,-9.4469,22.16,75,0,7.6,PT,1691711425
266,happy valley-goose bay,53.3168,-60.3315,16.17,67,75,3.09,CA,1691711145
267,luderitz,-26.6481,15.1594,17.31,65,17,1.61,NA,1691711425
268,berdigestyakh,62.0989,126.6992,20.37,61,0,3.78,RU,1691711425
269,east london,-33.0153,27.9116,18.2,62,0,5.15,ZA,1691711426
270,tarauaca,-8.1614,-70.7656,26.33,68,76,0.72,BR,1691711426
271,mount pearl,47.5166,-52.7813,18.58,92,75,2.57,CA,1691711222
272,fendou,46.65,124.8667,22.85,77,40,3.51,CN,1691711426
273,whitby,54.4877,-0.615,21.84,79,34,0.89,GB,1691711426
274,es castell,39.8795,4.2854,25.38,88,0,2.06,ES,1691711426
275,jutai,-5.1833,-68.9,26.49,73,56,0.71,BR,1691711427
276,ed damer,17.5928,33.9592,25.06,84,100,14.06,SD,1691711427
277,wynyard,-41.0,145.7167,11.28,86,100,3.27,AU,1691711427
278,lubuklinggau,-3.3,102.8667,22.56,86,46,0.54,ID,1691711427
279,carnarvon,-24.8667,113.6333,19.19,76,6,1.66,AU,1691711427
280,montijo,38.7067,-8.9739,22.29,78,0,3.6,PT,1691711322
281,axim,4.8699,-2.2405,23.8,88,32,2.47,GH,1691711428
282,akankpa,5.1264,8.1898,22.72,96,100,0.57,NG,1691711428
283,peniche,39.3558,-9.3811,20.16,93,0,4.58,PT,1691711428
284,jayapura,-2.5333,140.7,27.66,82,84,2.14,ID,1691711428
285,haiku-pauwela,20.9219,-156.3051,29.01,74,40,9.77,US,1691711428
286,bengkulu,-3.8004,102.2655,23.03,92,58,1.99,ID,1691711429
287,les sables-d'olonne,46.6667,-1.8333,18.44,95,69,2.9,FR,1691711429
288,puerto maldonado,-12.6,-69.1833,26.22,83,0,0.0,PE,1691711429
289,jahanian shah,31.8055,72.2771,33.88,45,33,2.83,PK,1691711429
290,tadine,-21.55,167.8833,20.2,52,0,7.79,NC,1691711429
291,san luis de la loma,17.2706,-100.8939,29.27,77,90,2.2,MX,1691711430
292,siwa oasis,29.2041,25.5195,28.22,45,0,5.69,EG,1691711430
293,volchikha,52.0333,80.3833,16.67,94,100,3.91,RU,1691711430
294,razdol'noye,45.7708,33.4878,22.49,78,86,1.59,UA,1691711430
295,inhapim,-19.5492,-42.12,20.33,69,99,1.69,BR,1691711430
296,yangjiang,21.85,111.9667,27.36,84,95,1.52,CN,1691711430
297,rongelap,11.1635,166.8941,28.33,75,54,6.17,MH,1691711431
298,port douglas,-16.4833,145.4667,23.21,66,64,7.05,AU,1691711239
299,oppdal,62.5943,9.6912,9.04,97,100,1.54,NO,1691711431
300,zelenoborskiy,66.845,32.3622,10.92,94,5,0.52,RU,1691711431
301,greymouth,-42.4667,171.2,5.38,84,82,1.89,NZ,1691711431
302,aasiaat,68.7098,-52.8699,3.15,87,100,1.01,GL,1691711431
303,pertek,38.8663,39.3268,26.1,24,0,1.11,TR,1691711431
304,dowlatabad,32.7998,51.6955,18.82,32,0,1.03,IR,1691711432
305,igrim,63.1906,64.4162,9.15,90,8,2.36,RU,1691711432
306,extrema,-22.8547,-46.3183,19.65,62,43,2.18,BR,1691711432
307,yemetsk,63.4721,41.7941,17.09,89,3,0.83,RU,1691711432
308,northfield,44.4583,-93.1616,26.4,67,0,3.09,US,1691711433
309,smithers,54.7804,-127.1743,20.18,45,75,3.09,CA,1691711433
310,peace river,56.2501,-117.286,16.17,94,75,5.66,CA,1691711433
311,aykhal,66.0,111.5,18.16,72,100,3.03,RU,1691711433
312,colon,9.3592,-79.9014,26.62,87,100,2.24,PA,1691711433
313,susuman,62.7833,148.1667,17.37,44,7,0.74,RU,1691711433
314,queenstown,-31.8976,26.8753,10.83,50,0,2.82,ZA,1691711433
315,tsiombe,-25.3,45.4833,17.08,60,21,4.3,MG,1691711434
316,watsa,3.0372,29.5355,17.01,99,94,0.6,CD,1691711434
317,alwar,27.5667,76.6,27.39,67,18,2.79,IN,1691711434
318,diu,20.7141,70.9822,26.18,84,100,4.58,IN,1691711434
319,okny,47.5404,29.46,16.16,57,49,3.8,UA,1691711434
320,ghadamis,30.1337,9.5007,26.89,28,0,5.5,LY,1691711434
321,wladyslawowo,54.7909,18.4009,12.74,77,94,4.3,PL,1691711435
322,praia da vitoria,38.7333,-27.0667,23.2,88,75,3.81,PT,1691711435
323,truth or consequences,33.1284,-107.2528,29.39,59,40,11.83,US,1691711435
324,sorong,-0.8833,131.25,26.17,75,91,5.88,ID,1691711435
325,afaahiti,-17.75,-149.2833,26.93,67,72,8.0,PF,1691711435
326,raja,8.4596,25.678,20.73,97,84,1.83,SS,1691711435
327,ghanzi,-21.5667,21.7833,12.21,40,2,4.61,BW,1691711435
328,lompoc,34.6391,-120.4579,27.66,70,100,2.06,US,1691711436
329,porto uniao,-26.2381,-51.0783,14.74,99,58,0.78,BR,1691711436
330,iskateley,67.6803,53.1512,10.31,82,13,1.31,RU,1691711436
331,parauapebas,-6.0675,-49.9022,25.96,43,2,1.14,BR,1691711436
332,tralee,52.2704,-9.7026,13.64,97,21,2.73,IE,1691711436
333,antofagasta,-23.65,-70.4,16.6,84,57,5.91,CL,1691711281
334,esil,51.9556,66.4042,15.7,58,93,6.36,KZ,1691711436
335,uglich,57.5275,38.3317,14.68,91,45,1.12,RU,1691711437
336,mary,37.0,62.5,27.93,22,0,2.52,TM,1691711437
337,coronado,32.6859,-117.1831,29.24,73,75,5.14,US,1691711437
338,antsiranana,-12.2787,49.2917,21.54,81,1,4.65,MG,1691711437
339,brisas de zicatela,15.8369,-97.0419,31.29,58,40,3.09,MX,1691711437
340,juneau,58.3019,-134.4197,15.23,98,100,4.12,US,1691711317
341,labuan,5.2767,115.2417,27.2,83,20,1.03,MY,1691711437
342,belmonte,-15.8631,-38.8828,22.19,80,61,2.66,BR,1691711147
343,brokopondo,4.75,-55.1667,27.78,66,55,4.98,SR,1691711438
344,puerto leguizamo,-0.1934,-74.7819,25.92,79,83,1.21,CO,1691711438
345,'ain el bell,34.3438,3.2247,27.33,22,0,1.75,DZ,1691711438
346,shalqar,47.8333,59.6,22.63,43,0,3.83,KZ,1691711438
347,tsiroanomandidy,-18.7667,46.0333,16.54,69,7,0.4,MG,1691711438
348,lata,40.1629,-8.3327,19.4,95,1,0.82,PT,1691711438
349,ambodifotatra,-16.9833,49.85,21.85,84,14,4.66,MG,1691711439
350,porto novo,6.4965,2.6036,24.13,87,56,2.6,BJ,1691711439
351,savannakhet,16.566,104.751,24.99,92,100,3.85,LA,1691711439
352,cootamundra,-34.65,148.0333,8.3,75,2,0.92,AU,1691711439
353,suixi,33.8907,116.7747,27.17,77,49,1.13,CN,1691711439
354,issenye,-2.0,34.3333,21.92,66,99,1.28,TZ,1691711440
355,taoudenni,22.6783,-3.9836,38.84,8,26,8.55,ML,1691711440
356,cabo san lucas,22.8909,-109.9124,32.56,73,75,2.57,MX,1691711059
357,satipo,-11.2522,-74.6386,25.48,64,90,0.8,PE,1691711440
358,saskatoon,52.1168,-106.6345,24.53,47,100,4.02,CA,1691711316
359,monkey bay,-14.0728,34.9201,19.82,70,0,8.45,MW,1691711441
360,campbellton,48.0075,-66.6727,19.25,94,87,1.62,CA,1691711441
361,fale old settlement,-9.3852,-171.2468,27.79,78,79,5.65,TK,1691711441
362,kansk,56.2017,95.7175,17.02,69,20,1.87,RU,1691711441
363,prince george,53.9166,-122.753,22.01,42,100,3.6,CA,1691711441
364,gafanha da nazare,40.6362,-8.7134,17.19,96,15,3.25,PT,1691711442
365,salalah,17.0151,54.0924,26.05,100,100,2.57,OM,1691711442
366,yuxia,34.0615,108.6291,26.34,78,83,0.48,CN,1691711442
367,al kharijah,25.4514,30.5464,30.02,24,0,3.85,EG,1691711442
368,tongchuanshi,35.0806,109.0897,23.91,81,89,0.77,CN,1691711442
369,langepas,61.2544,75.2124,11.79,79,100,6.15,RU,1691711443
370,beloyarskiy,63.7119,66.6722,7.95,85,34,2.54,RU,1691711443
371,hadibu,12.65,54.0333,25.45,80,66,6.81,YE,1691711443
372,princeville,45.7668,-61.2985,18.14,87,40,5.66,CA,1691711443
373,cidreira,-30.1811,-50.2056,17.72,96,51,6.56,BR,1691711443
374,cestos city,5.46,-9.5828,25.01,83,100,5.01,LR,1691711443
375,zarghun shahr,32.8473,68.4457,21.83,26,22,2.37,AF,1691711443
376,ta`u,-14.2336,-169.5144,27.63,73,100,5.77,AS,1691711444
377,turpan,42.9333,89.1667,34.22,20,0,2.83,CN,1691711444
378,arkhangel'sk,64.5401,40.5433,16.97,92,11,0.9,RU,1691711444
379,macas,-2.3167,-78.1167,19.76,96,37,0.79,EC,1691711444
380,belem,-1.4558,-48.5044,27.02,89,20,1.54,BR,1691711309
381,tarawa,1.419,172.984,31.05,70,40,2.57,KI,1691711444
382,sao tome,0.3365,6.7273,26.02,83,75,2.06,ST,1691711445
383,santa ana,33.7456,-117.8678,29.29,73,40,5.14,US,1691711445
384,namibe,-15.1961,12.1522,15.66,87,24,3.61,AO,1691711445
385,kavieng,-2.5744,150.7967,27.17,78,75,7.27,PG,1691711445
386,cambria,35.5641,-121.0808,24.41,85,55,1.34,US,1691711445
387,alamar,23.1583,-82.2769,34.07,80,50,5.86,CU,1691711445
388,ayr,55.4627,-4.6339,19.99,77,75,4.63,GB,1691711445
389,dryden,49.7833,-92.7503,20.16,49,0,2.57,CA,1691711446
390,kirakira,-10.4544,161.9205,25.42,82,97,6.67,SB,1691711446
391,banda aceh,5.5577,95.3222,26.39,83,77,3.26,ID,1691711182
392,miles city,46.4083,-105.8406,30.54,20,20,6.17,US,1691711432
393,monroe,43.1501,-77.6831,21.94,83,49,3.39,US,1691711259
394,trujillo,-8.116,-79.03,20.98,88,75,4.63,PE,1691711301
395,loyew,51.9458,30.7953,16.82,69,100,2.64,BY,1691711446
396,sarh,9.1429,18.3923,22.95,100,20,2.06,TD,1691711447
397,souillac,-20.5167,57.5167,19.21,94,40,1.54,MU,1691711447
398,al qubbah,32.7616,22.2424,19.86,74,0,7.08,LY,1691711447
399,grantsville,40.5999,-112.4644,33.86,18,0,5.66,US,1691711447
400,xilin hot,43.9667,116.0333,21.84,78,73,3.39,CN,1691711447
401,mar del plata,-38.0023,-57.5575,15.05,92,0,2.57,AR,1691711255
402,nuuk,64.1835,-51.7216,8.34,87,100,3.58,GL,1691711447
403,camanducaia,-22.7553,-46.1447,18.02,69,17,2.28,BR,1691711448
404,bikenibeu village,1.3673,173.1241,30.98,70,40,2.57,KI,1691711448
405,belomorsk,64.5232,34.7668,15.18,82,10,1.44,RU,1691711448
406,kourou,5.1552,-52.6478,26.03,89,35,2.84,GF,1691711448
407,la passe,45.5549,-0.8967,19.43,92,48,3.13,FR,1691711448
408,terrigal,-33.45,151.45,16.09,53,0,3.18,AU,1691711448
409,rodniki,57.1051,41.7305,16.57,95,32,1.69,RU,1691711449
410,sanctuary point,-35.1114,150.629,17.4,45,0,1.35,AU,1691711449
411,sterling,39.0062,-77.4286,27.28,79,75,1.54,US,1691711228
412,mugia,43.1041,-9.2179,19.95,93,31,3.49,ES,1691711449
413,ariquemes,-9.9133,-63.0408,27.95,52,66,0.77,BR,1691711449
414,munkebo,55.4618,10.5558,14.9,88,12,4.48,DK,1691711449
415,suva,-18.1416,178.4415,21.71,88,75,3.09,FJ,1691711449
416,ebaye,8.7748,167.7392,30.01,70,0,3.09,MH,1691711450
417,esquel,-42.9,-71.3167,2.0,94,75,2.97,AR,1691711356
418,salinopolis,-0.6136,-47.3561,26.06,82,45,4.89,BR,1691711450
419,phongsali,21.6833,102.1058,17.72,98,93,0.46,LA,1691711450
420,luorong,24.4058,109.6086,27.6,85,72,0.95,CN,1691711450
421,tafuna,-14.3358,-170.72,30.97,74,20,5.66,AS,1691711450
422,bontang,0.1333,117.5,25.11,89,100,3.48,ID,1691711450
423,novosmolinskiy,56.2841,43.0507,16.71,93,4,0.97,RU,1691711451
424,darwin,-12.4611,130.8418,25.99,62,0,4.63,AU,1691711223
425,saham,24.1722,56.8886,32.01,85,86,1.14,OM,1691711451
426,saint-joseph,-21.3667,55.6167,19.21,78,10,1.5,RE,1691711452
427,mazagao,-0.115,-51.2894,29.03,83,42,2.73,BR,1691711452
428,necochea,-38.5473,-58.7368,12.77,91,100,6.21,AR,1691711452
429,quarai,-30.3875,-56.4514,18.09,95,100,0.97,BR,1691711453
430,guixi,28.2886,117.2133,28.03,82,100,2.4,CN,1691711453
431,dmitrovsk-orlovskiy,52.505,35.1464,16.0,94,100,5.17,RU,1691711453
432,mil'kovo,55.6078,37.7956,17.27,81,68,2.57,RU,1691711453
433,malango,-2.9627,119.9001,20.84,94,96,0.5,ID,1691711453
434,dwarka,22.2394,68.9678,27.02,81,100,7.89,IN,1691711453
435,kasempa,-13.4584,25.8338,13.11,48,0,2.46,ZM,1691711454
436,timimoun,29.2639,0.231,35.21,12,0,5.14,DZ,1691711454
437,hotan,37.0997,79.9269,28.22,20,89,3.21,CN,1691711454
438,klaksvik,62.2266,-6.589,11.51,96,85,6.19,FO,1691711454
439,katsuren-haebaru,26.3369,127.8719,28.43,91,75,1.54,JP,1691711454
440,shevchenko,48.5,35.0,19.52,95,83,1.22,UA,1691711454
441,magherafelt,54.7536,-6.6066,16.99,99,77,3.74,GB,1691711454
442,paoua,7.2427,16.4406,20.36,98,99,0.63,CF,1691711455
443,arraial do cabo,-22.9661,-42.0278,20.87,82,3,4.29,BR,1691711243
444,tonsberg,59.2675,10.4076,13.48,90,30,3.09,NO,1691711455
445,hauterive,46.0901,3.4459,22.42,74,29,1.4,FR,1691711455
446,goure,13.9835,10.2704,24.74,70,95,3.75,NE,1691711455
447,achinsk,56.2694,90.4993,16.83,70,100,1.84,RU,1691711231
448,menongue,-14.6585,17.691,12.75,44,8,2.12,AO,1691711455
449,salinas,36.6777,-121.6555,28.09,70,0,6.69,US,1691711456
450,quepos,9.4236,-84.1652,27.53,84,100,0.35,CR,1691711456
451,vallenar,-28.5708,-70.7581,16.99,41,51,1.72,CL,1691711456
452,martuk,50.7475,56.5056,20.1,48,0,3.26,KZ,1691711456
453,thief river falls,48.1191,-96.1812,18.53,100,100,4.63,US,1691711456
454,mont-laurier,46.5501,-75.4993,18.79,98,100,0.9,CA,1691711456
455,bismarck,46.8083,-100.7837,27.58,55,0,4.12,US,1691711259
456,qa'en,33.7265,59.1844,21.59,28,0,9.26,IR,1691711456
457,hereford,52.0568,-2.7148,19.3,89,72,0.45,GB,1691711457
458,el calafate,-50.3408,-72.2768,0.52,83,94,3.0,AR,1691711457
459,mossel bay,-34.1831,22.146,24.96,56,0,1.92,ZA,1691711457
460,cole harbour,44.6724,-63.4751,22.71,74,78,3.6,CA,1691711457
461,longboat key,27.4125,-82.659,33.34,64,0,3.27,US,1691711457
462,severo-yeniseyskiy,60.3725,93.0408,12.29,97,100,1.53,RU,1691711457
463,sheregesh,52.9209,87.9869,14.91,82,100,1.55,RU,1691711457
464,san juan de los morros,9.9115,-67.3538,23.22,93,78,0.7,VE,1691711458
465,fomboni,-12.28,43.7425,24.72,73,2,7.4,KM,1691711458
466,newman,37.3138,-121.0208,35.19,40,35,1.34,US,1691711458
467,kachug,53.9606,105.8817,17.45,74,74,1.16,RU,1691711458
468,sungai raya,0.7,108.9,25.69,88,96,3.9,ID,1691711458
469,hilo,19.7297,-155.09,27.92,81,75,3.09,US,1691711183
470,shimoda,34.6667,138.95,29.5,73,12,6.27,JP,1691711458
471,tandil,-37.3217,-59.1332,11.49,93,100,6.27,AR,1691711459
472,rikaze,29.25,88.8833,14.87,63,100,0.87,CN,1691711459
473,mount isa,-20.7333,139.5,21.87,35,6,0.51,AU,1691711459
474,alesund,62.4723,6.1549,13.2,88,100,4.63,NO,1691711459
475,mulayjah,27.271,48.4242,32.2,40,3,0.71,SA,1691711459
476,bowen,-20.0167,148.2333,21.99,57,1,6.08,AU,1691711459
477,patti,31.2808,74.8572,29.04,88,66,2.74,IN,1691711459
478,al hudaydah,14.7978,42.9545,30.7,77,94,3.03,YE,1691711460
479,sodra sandby,56.5667,16.6167,13.27,85,100,5.01,SE,1691711460
480,phan rang-thap cham,11.5667,108.9833,28.08,69,6,1.99,VN,1691711460
481,naze,28.3667,129.4833,26.51,81,99,1.85,JP,1691711460
482,changqing,36.5575,116.7272,27.36,69,15,2.54,CN,1691711460
483,tokar,18.4254,37.729,32.71,43,3,8.47,SD,1691711460
484,mao,39.8885,4.2658,25.31,88,0,2.06,ES,1691711461
485,tsarevo,42.1667,27.85,18.37,89,87,5.2,BG,1691711461
486,zyryanovsk,49.7386,84.2719,14.45,90,40,1.64,KZ,1691711461
487,benghazi,32.1167,20.0667,25.97,63,0,6.15,LY,1691711461
488,zalingei,12.9096,23.4741,21.48,88,13,0.94,SD,1691711461
489,phalodi,27.1333,72.3667,27.96,67,78,8.04,IN,1691711461
490,aridaia,40.9731,22.0564,21.06,64,3,4.02,GR,1691711462
491,midvagur,62.0511,-7.1939,11.46,100,100,3.6,FO,1691711462
492,richards bay,-28.783,32.0377,15.28,84,0,3.48,ZA,1691711462
493,tindouf,27.6711,-8.1474,39.25,13,40,3.6,DZ,1691711462
494,kurchatov,51.6601,35.6521,19.23,87,100,5.8,RU,1691711462
495,cefalu,38.0386,14.0229,22.08,66,0,1.79,IT,1691711462
496,thinadhoo,0.5333,72.9333,28.0,75,90,5.42,MV,1691711463
497,muroto-misakicho,33.2833,134.15,27.61,83,3,3.94,JP,1691711463
498,sisimiut,66.9395,-53.6735,7.61,91,100,4.13,GL,1691711463
499,cedeira,43.6797,-8.0209,19.66,83,59,1.91,ES,1691711463
500,muisne,0.6,-80.0333,25.35,84,60,3.87,EC,1691711463
501,derzhavinsk,51.1,66.3167,16.2,67,92,6.12,KZ,1691711464
502,mamuju,-2.6748,118.8885,26.62,80,100,0.92,ID,1691711464
503,huambo,-12.7761,15.7392,17.89,39,6,2.06,AO,1691711464
504,kayyerkan,69.3786,87.7439,9.61,100,99,12.93,RU,1691711173
505,elesbao veloso,-6.2019,-42.1403,27.38,40,38,4.73,BR,1691711464
506,coquimbo,-29.9533,-71.3436,14.85,88,0,1.54,CL,1691710701
507,dobele,56.625,23.2786,13.63,74,100,1.67,LV,1691711465
508,nemuro,43.3236,145.575,20.22,95,100,6.54,JP,1691711281
509,kailua-kona,19.6406,-155.9956,28.98,77,75,5.14,US,1691711465
510,nadym,65.5333,72.5167,4.81,83,0,8.97,RU,1691711403
511,nanpiao,41.0982,120.7479,23.77,66,3,6.76,CN,1691711465
512,new norfolk,-42.7826,147.0587,12.18,75,100,2.19,AU,1691711465
513,skare,55.3833,13.05,12.99,81,37,6.1,SE,1691711466
514,el bayadh,33.6832,1.0193,26.06,20,54,1.72,DZ,1691711466
515,howard springs,-12.497,131.047,25.95,47,80,4.81,AU,1691711466
516,rio gallegos,-51.6226,-69.2181,2.03,93,75,6.17,AR,1691711466
517,lander,42.833,-108.7307,29.89,20,0,9.26,US,1691711215
518,macia,-25.0269,33.0989,13.92,81,18,1.81,MZ,1691711466
519,mentougou,39.9392,116.0917,25.52,92,94,0.54,CN,1691711467
520,port saint john's,-31.6229,29.5448,16.49,86,6,4.24,ZA,1691711467
521,crane,31.3974,-102.3501,40.97,13,5,3.23,US,1691711467
522,madimba,-10.4,40.3333,20.71,88,23,3.8,TZ,1691711467
523,coihueco,-36.6167,-71.8333,8.41,87,87,2.57,CL,1691711467
524,al ghayzah,16.2079,52.176,25.75,91,92,3.32,YE,1691711467
525,sao jose da coroa grande,-8.8978,-35.1478,23.18,87,11,3.47,BR,1691711468
526,indre arna,60.4247,5.4764,11.6,1,92,0.66,NO,1691711468
527,cockburn town,21.4612,-71.1419,28.88,85,99,8.96,TC,1691711468
528,daru,-9.0763,143.2092,24.62,74,91,7.22,PG,1691711468
529,kertih,4.5141,103.4483,25.05,94,20,0.0,MY,1691711468
530,khovd,48.0056,91.6419,19.05,48,0,1.37,MN,1691711468
531,porto velho,-8.7619,-63.9039,29.03,79,40,0.51,BR,1691711468
532,ozalp,38.6548,43.993,20.16,33,9,1.92,TR,1691711239
533,kuruman,-27.4524,23.4325,7.22,48,18,3.99,ZA,1691711469
534,kandahar,31.0,65.75,25.72,19,0,3.43,AF,1691711469
535,bom despacho,-19.7364,-45.2522,20.87,49,0,1.05,BR,1691711469
536,pallasovka,50.05,46.8833,23.29,38,66,3.51,RU,1691711470
537,laojunmiao,39.8333,97.7333,20.93,39,4,1.7,CN,1691711470
538,chifeng,42.2683,118.9636,20.86,70,59,2.74,CN,1691711470
539,bata,1.8639,9.7658,24.44,86,74,2.71,GQ,1691711470
540,aginskoye,51.1,114.53,15.61,96,100,1.43,RU,1691711470
541,metlili chaamba,32.2667,3.6333,31.52,18,0,2.06,DZ,1691711470
542,kerikeri,-35.2268,173.9474,13.84,78,22,1.34,NZ,1691711471
543,morada nova,-5.1067,-38.3725,24.42,81,66,2.91,BR,1691711471
544,foca,38.6703,26.7566,22.91,70,0,4.77,TR,1691711471
545,maragogi,-9.0122,-35.2225,23.08,88,12,3.47,BR,1691711471
546,taro,-8.3862,115.28,19.0,75,73,1.47,ID,1691711471
547,nieves,15.3274,120.9485,27.73,84,97,0.25,PH,1691711471
548,prokuplje,43.2342,21.5881,13.6,88,6,1.35,RS,1691711472
549,soufriere,13.8562,-61.0566,28.81,85,40,8.23,LC,1691711472
550,trinidad,-14.8333,-64.9,30.99,62,20,1.03,BO,1691711472
551,campos dos goytacazes,-21.75,-41.3,23.03,88,0,5.14,BR,1691711472
552,bubaque,11.2833,-15.8333,26.77,82,98,6.71,GW,1691711472
553,laguna de perlas,12.3429,-83.6712,30.05,86,97,2.93,NI,1691711472
554,tofol,5.3248,163.0078,31.88,66,75,1.54,FM,1691711473
555,lospalos,-8.5186,127.0025,24.12,65,19,5.13,TL,1691711473
556,leh,34.1667,77.5833,17.45,58,27,2.02,IN,1691711473
557,khandyga,62.6667,135.6,22.9,40,11,1.74,RU,1691711473
558,linkou,45.3,130.2833,19.45,98,100,4.07,CN,1691711473
559,coahuayana de hidalgo,18.7,-103.6583,30.89,66,75,2.38,MX,1691711473
560,toulepleu guere,6.574,-8.4259,21.02,100,100,1.01,CI,1691711474
561,shaumiani,41.3527,44.7618,27.9,55,0,1.36,GE,1691711474
562,tvoroyri,61.5556,-6.8111,11.67,97,94,6.68,FO,1691711474
563,malmberget,67.1753,20.6549,8.31,93,40,2.57,SE,1691711474
564,victorica,-36.2151,-65.4359,13.58,36,19,6.84,AR,1691711474
565,ust'-ilimsk,58.0006,102.6619,17.35,71,100,1.72,RU,1691711475
566,beardstown,40.0176,-90.4243,28.2,67,25,1.82,US,1691711475
567,bonga,7.2833,36.2333,13.94,99,22,0.64,ET,1691711475
568,mogocha,53.7333,119.7667,14.9,95,100,0.76,RU,1691711475
569,champerico,14.3,-91.9167,32.3,77,87,3.69,GT,1691711475
570,narrabri,-30.3167,149.7833,17.51,51,0,0.45,AU,1691711476
571,qingyuan,23.7,113.0333,26.99,84,62,0.87,CN,1691711236
572,manaure,11.7751,-72.4445,27.6,85,100,12.32,CO,1691711274
573,ivdel',60.6911,60.4206,10.06,88,23,1.79,RU,1691711476
574,wenshui,28.4506,106.5267,23.53,91,37,1.59,CN,1691711476
575,nsanje,-16.92,35.262,16.31,91,7,1.25,MW,1691711476
576,babra,21.85,71.3,25.17,81,100,3.27,IN,1691711477
577,yermentau,51.6214,73.1069,13.0,81,95,3.92,KZ,1691711477
578,ecoporanga,-18.3733,-40.8306,20.29,82,88,2.52,BR,1691711477
579,filadelfia,39.9523,-75.1638,24.51,92,100,1.54,US,1691711244
580,korla,41.7597,86.1469,27.28,27,0,5.49,CN,1691711477
581,toliara,-23.35,43.6667,16.99,73,0,5.57,MG,1691711477
582,kavalerovo,44.2661,135.0572,17.24,99,100,1.05,RU,1691711478
583,codrington,-38.2667,141.9667,11.57,79,100,5.07,AU,1691711478
584,morehead city,34.7229,-76.726,28.89,87,100,8.23,US,1691711289
585,kapa'a,22.0752,-159.319,31.18,68,0,7.2,US,1691711478
586,itaituba,-4.2761,-55.9836,26.53,63,67,1.25,BR,1691711478
587,barreirinha,-2.7933,-57.07,27.64,56,63,1.26,BR,1691711478
588,pandan,14.0453,124.1694,29.54,71,100,2.67,PH,1691711478
589,tarfaya,27.9358,-12.9218,21.93,89,37,7.1,MA,1691711479
590,tucurui,-3.7661,-49.6725,25.36,71,17,1.47,BR,1691711479
591,dixon,38.4455,-121.8233,34.4,39,0,4.12,US,1691711298
592,federacion,-31.0062,-57.8996,18.1,82,100,1.37,AR,1691711479
593,manacapuru,-3.2997,-60.6206,28.42,56,77,2.04,BR,1691711479
